Name,Type,City,Address,Latitude,Longitude,Price(Rs.),Time
A K Enterprise,amusement park,Ahmedabad,37- A  Meldi Estate  B/H. Pavan Plastics  Opp.Meldi Mata Temple  Nr Gota Railway Crossing  Ahmedabad 380013  Gujarāt,23.023192,72.571617,250,4 hour
A.K.Industries,amusement park,Ahmedabad,N/A  Bhawan Bhai Compound  Ahmedabad 061393  Gujarāt,23.06163,72.563254,350,3 hour 35 min
Ahmedabad Central,mall,Ahmedabad,Ahmedabad 941735  Gujarāt,23.020896,72.554675,0,2 hour 30 min
Ahmedabad One,mall,Ahmedabad,Tp Scheme-1  Ahmedabad 380015  Gujarāt,23.039888,72.531333,0,2 hour 30 min
Amdavad Ni Gufa,art gallery,Ahmedabad,Kasturbhai Lalbhai Campus  University Road (Gujarat University Rd)  Ahmedabad 380009  Gujarāt,23.036217,72.549541,250,2 hour 20 min
Amit Fibre Decor,amusement park,Ahmedabad,B-10 Sankalp Estate  Panna Estate Road  Rakhial  Ahmedabad 380023  Gujarāt,23.021375,72.623924,320,3 hour 32 min
Apsara Art Galleries,art gallery,Ahmedabad,131 Golwadnaka  Ratan Pole  Ahmedabad 380001  Gujarāt,23.026183,72.587759,150,3 hour 30 min
Central Mall,mall,Ahmedabad,Ahmedabad 941735  Gujarāt,23.021015,72.554684,0,2 hour 30 min
Children's Traffic Park,park,Ahmedabad,026204  Gujarāt,23.026098,72.579825,150,2 hour
Church,church,Ahmedabad,,23.046314,72.528701,0,1 hour
city mamlatdar executive magistrate  Asarva Ni Kacheri,monument,Ahmedabad,Meghaninagar (Nr. Civil Hospital)  Ahmedabad 941735  Gujarāt,23.039393,72.523794,40,3 hour
Conflictorium,museum,Ahmedabad,Gool Lodge (R c college  mirzapur)  Ahmedabad 380001  Gujarāt,23.035296,72.586311,140,4 hour
Dmart,mall,Ahmedabad,Shivalik (132 ft ring road  satellite)  Ahmedabad 380015  Gujarāt,23.019453,72.529444,0,2 hour 30 min
Drape Shoppe,art gallery,Ahmedabad,Rembrant  C G Road Above Citi Bank  Ahmedabad 380006  Gujarāt,23.023088,72.571914,200,2 hour 20 min
Galaxy Avenue naroda,mall,Ahmedabad,941735,23.078277,72.653636,0,2 hour 30 min
Gujarat Museum Society,museum,Ahmedabad,Lal Darwaja Institute  Navrangpura  Ahmedabad 380005  Gujarāt,23.037503,72.566411,170,3 hour 10 min
Gurjary Tourism Enterprise Ltd.,monument,Ahmedabad,2 Sahajanand Trade Centre Ellisbridge  Ahmedabad 380006  Gujarāt,23.039555,72.565955,50,4 hour 20 min
Hidden Beauty,art gallery,Ahmedabad,Prerana Tirth Derasar (Anand Nagar)  Ahmedabad 380015  Gujarāt,23.025672,72.587233,150,2 hour 10 min
Jai Shankar Sundari Hall,art gallery,Ahmedabad,Haveli Road  Ahmedabad 020577  Gujarāt,23.020479,72.582451,190,2 hour 50 min
Kalpana Park,park,Ahmedabad,Usmanpura Cross Road  Usmanpura  Ahmedabad 380013  Gujarāt,23.043997,72.572083,50,2 hour
Kankaria,zoo,Ahmedabad,Nr raipur  Ahmedabad  Gujarāt,23.038896,72.527234,270,4 hour 20 min
Kankaria Zoo,zoo,Ahmedabad,Kankaria Lake  Ahmedabad 380022  Gujarāt,23.010716,72.600677,90,3 hour 30 min
Kite Museum,museum,Ahmedabad,Opposite Nid  Ahmedabad 380007  Gujarāt,23.012552,72.569598,250,3 hour 30 min
Mallinath park,park,Ahmedabad,Ahmedabad 380007  Gujarāt,23.003864,72.558886,100,2 hour
Methodist Church Maninagar,church,Ahmedabad,Sionnagar Maninagar East  Ahmedabad 380008  Gujarāt,22.996156,72.619388,0,1 hour
Motilal Park,park,Ahmedabad,,23.000335,72.591663,150,2 hour
Naranpura Exchange,monument,Ahmedabad,941735,23.062024,72.545493,100,5 hour 10 min
Prahaladbhai Patel Joggers Park,park,Ahmedabad,,23.043633,72.554671,100,2 hour
Sabarmati Ashram,museum,Ahmedabad,Nr. Sabarmati River (SH41)  Ahmedabad 380027  Gujarāt,23.060673,72.58072,170,3 hour 10 min
Sardar Patel National Memorial,museum,Ahmedabad,Near Shahibaug Circuit House (Airport Road)  Ahmedabad 369943  Gujarāt,23.057814,72.593256,130,5 hour 10 min
Sarkhej Roza,monument,Ahmedabad,Makarba  Post Jeevraj Park (Near Makarba Tank)  Ahmedabad 380051  Gujarāt,22.992249,72.504559,90,4 hour 10 min
Science City,amusement park,Ahmedabad,Ahmedabad  Gujarāt,23.079187,72.505457,250,2 hour 25 min
Sion Methodist Church,church,Ahmedabad,332 K P Shah Hse  Ahmedabad 380005  Gujarāt,22.995304,72.614934,0,1 hour
St. Xaviers Loyolla Hall Church,church,Ahmedabad,,23.05055,72.545733,0,1 hour
Sundarvan,zoo,Ahmedabad,,23.018433,72.528941,150,3 hour 20 min
Temple,temple,Ahmedabad,Dr Ambedkar Marg  Ahmedabad 380001  Gujarat,23.037629,72.588012,0,2 hour
Temple,temple,Ahmedabad,Lakha Patel Ni Pol Road  Ahmedabad 380001  Gujarat,23.023514,72.591644,0,3 hour
Temple,temple,Ahmedabad,Swami Vivekanand Road  Ahmedabad 380001  Gujarat,23.020382,72.599457,0,2 hour 20 min
Temple,temple,Ahmedabad,Dudheshwar Road  Ahmedabad 380004  Gujarat,23.038616,72.587355,0,2 hour 40 min
Temple,temple,Ahmedabad,Jagannathji Road  Ahmedabad 380022  Gujarat,23.012266,72.588051,0,3 hour 20 min
Thaltej,amusement park,Ahmedabad,Ahmedabad  Ahmedabad  Gujarāt,22.978276,72.608951,300,3 hour 30 min
The Aquarium Shop,zoo,Ahmedabad,G-2  Shakti Palace Complex  Judges Bunglow Road  Vastrapur  Ahmedabad 380015  Gujarāt,23.048723,72.50942,300,4 hour 20 min
The Church Of North India,church,Ahmedabad,Ellisbridge  Ahmedabad  Gujarāt,23.022789,72.55561,0,1 hour
Vasna Telephone Exchane,monument,Ahmedabad,941735,22.998727,72.539055,120,4 hour 10 min
Wild life zoo,zoo,Ahmedabad,941735,23.049049,72.516155,270,3 hour 50 min
All Peoples Church,church,Bangalore,Museum Road (Museum Road)  Bangalore 560001  Karnataka,12.972104,77.604058,0,1 hour
Banerghatta National Park,zoo,Bangalore,Banerghatta  Bangalore  Karnātaka,12.907168,77.595301,200,4 hour 30 min
Cas Aqua,zoo,Bangalore,225 1 St Main  7th Block Koramangala  Bangalore 560095  Karnataka,12.937104,77.61198,250,5 hour 10 min
Chitra Kala Parishad,art gallery,Bangalore,Seshadripuram (Kumarakrupa Rd )  Bangalore 560001  Karnātaka,12.989239,77.581011,200,2 hour 50 min
Cubbon Park,park,Bangalore,M G Road  Bangalore 974742  Karnātaka,12.977173,77.595288,75,2 hour
Cubbon Park- Dog Park,park,Bangalore,974515,12.974508,77.590097,90,2 hour
Cubbon Park Library Play Ground,park,Bangalore,Sampangirama  Bangalore  Karnātaka,12.974398,77.590132,100,2 hour
0dom Park,park,Bangalore,Sheshadri Road (Seshadri Road)  Bangalore 560001  Karnātaka,12.978176,77.58236,75,2 hour
0dom Park,park,Bangalore,175 1st Floor  Bangalore 560053  Karnātaka,12.977589,77.581724,90,2 hour
Funzone,amusement park,Bangalore,Swagath Garuda Mall,12.928802,77.591527,300,3 hour 30 min
Government Aquarium  Cubbon Park,zoo,Bangalore,Kasturba Road  Bangalore 941735  Karnātaka,12.976442,77.598579,150,3 hour 50 min
Jawahar Bal Bhavan,amusement park,Bangalore,Kasturba Road  Bangalore 560001  Karnātaka,12.976055,77.596952,280,2 hour 28 min
Karnataka museum,museum,Bangalore,Kasturba Road (SR Nagar)  Bangalore 562001  Karnātaka,12.974707,77.595701,100,3 hour 30 min
KH Kala Soudha,art gallery,Bangalore,Ramanjaneya Temple Compound  Ground Floor  5th Main Road  Hanumantha (Hanumantha Nagar  Basavanagudi)  Bangalore 560019  Karnātaka,12.944414,77.562383,170,3 hour 30 min
King Edward 7 Statue,monument,Bangalore,Cubbon Park  Bangalore 560001  Karnātaka,12.978802,77.597342,60,3 hour 30 min
Mahatma Gandhi Statue,monument,Bangalore,Bangalore 560001  Karnātaka,12.978545,77.589661,60,4 hour 10 min
Mahatma Gandhi Statue,monument,Bangalore,Bangalore 560001  Karnātaka,12.978479,77.589648,50,3 hour 30 min
Mahatma Gandhi Statue,monument,Bangalore,Bangalore 560001  Karnātaka,12.978545,77.589489,70,4 hour 20 min
MKF Museum Of Art,museum,Bangalore,Bangalore 560001  Karnātaka,12.970642,77.597794,200,4 hour 10 min
Museum Of Art and Photography (MAP),museum,Bangalore,Bangalore 560001  Karnātaka,12.974485,77.596753,220,4 hour 20 min
National Gallery of Modern Art,museum,Bangalore,49 Manikyavelu Mansion  Palace Road  Beside Devdas Petrol Bunk  Bangalore 560052  Karnātaka,12.989783,77.588118,130,5 hour 10 min
Nexus Mall Koramangala,mall,Bangalore,Kormangala  Bangalore 560029  Karnātaka,12.934663,77.611423,0,2 hour 30 min
Orion Mall,mall,Bangalore,Dr. Rajkumar Rd  Rajajinagar  Bangalore 560055  Karnātaka,13.011306,77.554906,0,2 hour 30 min
Raintree,art gallery,Bangalore,Plot No 4  High Grounds  Sankey Road  Vasanthnagar  Bangalore 560001  Karnātaka,12.994702,77.584652,190,2 hour 10 min
Rangoli Art Center,art gallery,Bangalore,M.G Road  Bangalore  Karnātaka,12.975856,77.604023,230,3 hour 10 min
Sacred Heart Church,church,Bangalore,62 Richmond Road  Bangalore 560025  Karnātaka,12.96637,77.609366,0,1 hour
Sai Baba Temple,temple,Bangalore,Malleshwaram  Bangalore 562164  Karnātaka,13.004581,77.571419,50,3 hour
Shaaditweet.Com,amusement park,Bangalore,Flushing Meadows (doddenakundi)  Bangalore 560037  Karnātaka,12.978858,77.593855,300,3 hour 30 min
Shirdi Sai Baba Temple,temple,Bangalore,Cambridge Layout (Cambridge Road)  Bangalore 560038  Karnātaka,12.96959,77.630563,50,2 hour
Shiva Temple,temple,Bangalore,Murudeshwar Nh - 17 (Bhatkal Taluk)  562109  Karnātaka,13.004654,77.621377,50,3 hour
Smaaash Bengaluru,amusement park,Bangalore,1Mg-Lido Mall  Trinity Circle  Mg Road  Bangalore 560001  Karnātaka,12.974993,77.607804,350,3 hour 35 min
Sri Ramanjanaya Temple,temple,Bangalore,Bangalore 941735  Karnātaka,12.984279,77.603453,50,2 hour
St. Andrew's Church,church,Bangalore,Bangalore 560001  Karnātaka,12.979107,77.603943,0,1 hour
St. Patrick's Church,church,Bangalore,At Museum Road  Bangalore 560078  Karnātaka,12.970286,77.606152,0,1 hour
St. Peter's Telugu Church,church,Bangalore,10 1st Cross Mission Compound  Bangalore 560027  Karnātaka,12.96293,77.588588,0,1 hour
Star city  fun world,amusement park,Bangalore,Palace Grounds  Bangalore  Karnātaka,13.006652,77.59243,400,4 hour 40 min
Temple,temple,Bangalore,Raja Ram Mohan Roy Road  Bangalore 560027  Karnataka,12.967823,77.59303,0,3 hour
UB City Tower,mall,Bangalore,Ub City  24  Vittal Mallya Road  Kg Halli  Shanthala Nagar  Sampangi Rama  Bangalore 560001  Karnātaka,12.971673,77.596055,0,2 hour 30 min
Vega City,mall,Bangalore,Bannerghatta Main Road  Btm Layout Stage 2  Kaverappa Industrial Estate  Bangalore 560076  Karnātaka,12.907649,77.60102,0,2 hour 30 min
Venkatappa Art Gallery,art gallery,Bangalore,Kasturba Road Cubbon Park  Bangalore 560001  Karnātaka,12.974272,77.595325,200,2 hour 20 min
Vidhana Soudha,monument,Bangalore,Vidhan Veedi (Nr Cubbon Park)  Bangalore 560001  Karnātaka,12.979105,77.591783,60,4 hour 20 min
Village Supermarket,mall,Bangalore,Bangalore 941735  Karnātaka,12.999527,77.623096,0,2 hour 30 min
Visvesvaraya Industrial and Technological Museum,museum,Bangalore,Kasturba Road  Cubbon Park  Bangalore 560001  Karnātaka,12.975162,77.596482,170,3 hour 10 min
Aashima Mall,mall,Bhopal,,23.182902,77.456227,0,2 hour 30 min
Art Center,art gallery,Bhopal,A 29 Hbc (nh 12)  Bhopal 267835  Madhya Pradesh,23.267706,77.377675,190,2 hour 20 min
Bharat Bhawan,art gallery,Bhopal,Shamla Hills  Tt  Bhopal 247048  Madhya Pradesh,23.246989,77.392279,250,2 hour 50 min
Bharat Bhawan,art gallery,Bhopal,Shyamala Hills (Bhopal)  Bhopal 462013  Madhya Pradesh,23.229123,77.389659,150,2 hour 20 min
Birla Mandir,temple,Bhopal,64 Banglos  Bhopal 462011  Madhya Pradesh,23.237923,77.408672,50,2 hour 30 min
Birla Museum,museum,Bhopal,Vallabh Bhavan  Bhopal 462004  Madhya Pradesh,23.23805,77.407939,200,4 hour 10 min
Childran Park,amusement park,Bhopal,Barkhera,23.226183,77.463653,300,3 hour 30 min
DB City Mall,mall,Bhopal,Shanshah Garden (Raisen Road)  Bhopal 462023  Madhya Pradesh,23.232555,77.429974,0,2 hour 30 min
Db City Mall,mall,Bhopal,Arera Hills  M.P  Bhopal 941735  Madhya Pradesh,23.232622,77.402596,0,2 hour 30 min
Gond Tribal Arts,art gallery,Bhopal,E/2  101  Bhopal 462016  Madhya Pradesh,23.219447,77.436297,150,3 hour 30 min
Govt Veterinary. Hospital,monument,Bhopal,941735,23.242079,77.416312,100,4 hour 10 min
Gurudwara,temple,Bhopal,Idhga Hils  271516,23.271455,77.386219,50,2 hour
Holy Redeemer's Church,church,Bhopal,Railway Colony  Bhopal 266331  Madhya Pradesh,23.266456,77.419949,0,1 hour
Indira Gandhi Rashtriya Manav Sangrahalaya,museum,Bhopal,Shymala Hills  Bhopal 462013  Madhya Pradesh,23.232123,77.37756,200,4 hour 10 min
Kamla Park,park,Bhopal,Kamla Park Road (Krishna Nagar  Shymala Hills  Professors Colony)  Bhopal 462001  Madhya Pradesh,23.251913,77.39751,75,2 hour
Khushboo Park,park,Bhopal,Bhopal 068581  Madhya Pradesh,23.246751,77.39486,130,2 hour
KR Architecture Studio,art gallery,Bhopal,202 Vijay Sthambh Zone-2  Mp  Bhopal  Madhya Pradesh,23.250231,77.420145,200,2 hour 50 min
M.P.State Biodiversity Board,monument,Bhopal,941735,23.240541,77.424639,110,3 hour
Maharana Pratap Statue,monument,Bhopal,Opposite Jyoti Cineplex  Zone 1  Mp  Bhopal 462016  Madhya Pradesh,23.233529,77.433934,90,5 hour 10 min
Mayur Park,park,Bhopal,Link Road 1 (Tulsinagar)  Bhopal 462003  Madhya Pradesh,23.231477,77.418851,150,2 hour
Neelkanth Park,park,Bhopal,385685,23.272023,77.385582,100,2 hour
Peergate Mata Mandir,temple,Bhopal,Bhopal 462001  Madhya Pradesh,23.259256,77.39859,50,2 hour
Radha Krishna Mandir,temple,Bhopal,Koh-e-Fiza  Bhopal 462045  Madhya Pradesh,23.267706,77.377675,50,3 hour
Raja Bhoj Statue,monument,Bhopal,941735,23.246445,77.396958,80,3 hour 30 min
Roop Kumar Stores,mall,Bhopal,2 Ghora Nakkas  Bhopal 462001  Madhya Pradesh,23.262736,77.405204,0,2 hour 30 min
Sai Mandir,temple,Bhopal,Shastri (Jawahar Chowk)  Bhopal 462010  Madhya Pradesh,23.237924,77.387254,50,2 hour 40 min
Sair Sapata,amusement park,Bhopal,On The Banks Of Upper Lake  Bhopal 462044  Madhya Pradesh,23.216348,77.376043,360,3 hour 36 min
SBI KoheFiza,monument,Bhopal,Koh-e-Fiza  941735,23.267924,77.377489,100,3 hour 30 min
St Johns Church,church,Bhopal,Nh 12 (govindpura)  Bhopal  Madhya Pradesh,23.237743,77.441883,0,1 hour
St Thomas Church,church,Bhopal,700016  Maharashtra,23.247292,77.41236,0,1 hour
St. Johns Church,church,Bhopal,Govindpura  238222,23.238174,77.445783,0,1 hour
St. Peters Marthoma Church,church,Bhopal,Subhash  Bhopal  Madhya Pradesh,23.24366,77.434278,0,1 hour
State Museum,museum,Bhopal,Shamla Hills  Tt  Bhopal 462002  Madhya Pradesh,23.235522,77.385792,100,3 hour 30 min
State Museum / Rajya Sanghralya,museum,Bhopal,,23.234409,77.385139,130,5 hour 10 min
State Museum of Madhya Pradesh,museum,Bhopal,Bhopal 242371  Madhya Pradesh,23.246953,77.395548,180,3 hour 20 min
Van Vihar National Park,park,Bhopal,Bhadbhada  Bhopal  Madhya Pradesh,23.23543,77.365823,125,2 hour
Vishal Mega Mart,mall,Bhopal,Berasia Road  Qazi Camp  Raj Deo Colony  Congress (Near Reliance Petrol Pump  JP Nagar)  Bhopal 941735  Madhya Pradesh,23.274281,77.402664,0,2 hour 30 min
20 Sector Park,park,Chandigarh,N/A,30.723682,76.788151,50,2 hour
All Rise Birthday Party Planner,museum,Chandigarh,Chandigarh 160002  Chandigarh,30.719454,76.764258,150,4 hour 20 min
Baptist Church,church,Chandigarh,Sector- 44  Chandigarh  Chandigarh,30.709765,76.751626,0,1 hour
Bombay Circus,amusement park,Chandigarh,,30.708612,76.835345,360,3 hour 36 min
Centra Mall,mall,Chandigarh,Industrial Area Phase 1 (Chandigarh)  Chandigarh 941735  Chandigarh,30.706732,76.796282,0,2 hour 30 min
Chandigarh Architecture Museum,museum,Chandigarh,Sector 10  Chandigarh 941735  Chandigarh,30.748175,76.786886,220,4 hour 20 min
City Centre DLF,mall,Chandigarh,It Park Road  Chandigarh 160101  Chandigarh,30.728761,76.845236,0,2 hour 30 min
City Emporium Mall,mall,Chandigarh,Phase 1  Chandigarh 160002  Chandigarh,30.709694,76.800935,0,2 hour 30 min
CNI Church,church,Chandigarh,Sector 18  Chandigarh  Chandigarh,30.734174,76.7871,0,1 hour
CTH Studios,amusement park,Chandigarh,742722,30.742799,76.745053,320,3 hour 32 min
Eiffel Tower Replica  Sector 10C,monument,Chandigarh,Sector 10C (CITCO Road  Madhya Marg)  Chandigarh 160011  Chandigarh,30.748779,76.785536,100,3 hour 30 min
Elante Mall,mall,Chandigarh,Industrial Area Phase 1  Chd (Industrial Area)  Chandigarh 160002  Chandigarh,30.705513,76.801097,0,2 hour 30 min
Fun Factory,amusement park,Chandigarh,745163  Chandigarh,30.745071,76.788294,250,2 hour 25 min
G.A.S.P Art,art gallery,Chandigarh,3202 Ground Floor  Sector 40D  Chandigarh 160036  Chandigarh,30.737114,76.788219,230,3 hour 10 min
G.A.S.P Art,art gallery,Chandigarh,3202 Ground Floor  Sector 40D  Chandigarh 160036  Chandigarh,30.734961,76.78493,170,2 hour 50 min
Geometric Hill,monument,Chandigarh,Chandigarh 160001  Chandigarh,30.759005,76.804806,80,3 hour
Government Museum and Art Gallery,art gallery,Chandigarh,Sector 10-c (Jan Marg)  Chandigarh 160017  Chandigarh,30.748905,76.787194,200,3 hour 10 min
International Doll's Museum,museum,Chandigarh,Sector 23B  Chandigarh 160023  Chandigarh,30.739722,76.766833,210,5 hour 10 min
IPA Church,church,Chandigarh,Maheshpur  Panchkula 682161  Haryāna,30.682228,76.864178,0,1 hour
Iskcon Temple,temple,Chandigarh,Sector 36  Chandigarh 941735  Chandigarh,30.732743,76.760317,50,3 hour
Le Corbusier Centre,museum,Chandigarh,Sector 19B  Old Architech Building  Madhya Marg (Madhya Marg)  Chandigarh 160019  Chandigarh,30.730008,76.79936,210,5 hour 10 min
Little Flower Convent School,church,Chandigarh,Sector 14  Panchkula 134113  Haryāna,30.678668,76.845854,0,1 hour
National Gallery of Portraits,art gallery,Chandigarh,Sector-17B  Chandigarh 160017  Chandigarh,30.740385,76.784627,230,2 hour 50 min
Natural History Museum,museum,Chandigarh,Sector 10 (CITCO Road)  Chandigarh 160011  Chandigarh,30.748097,76.78585,250,3 hour 30 min
Nehru Park,park,Chandigarh,Sector 22  Chandigarh  Chandigarh,30.733411,76.772506,75,2 hour
Open Hand Monument,monument,Chandigarh,Sector 1 (Uttar Marg)  Chandigarh 941735  Chandigarh,30.759016,76.807417,60,3 hour
Park,park,Chandigarh,941735,30.733324,76.776731,125,2 hour
Park Plaza,park,Chandigarh,Block Number 10  Sector 17  Chandigarh 160017  Chandigarh,30.744364,76.783752,130,2 hour
Sanatan Temple - 23,temple,Chandigarh,941735,30.737044,76.767072,50,3 hour 20 min
Sector 18 D Park,park,Chandigarh,Sector 18  Chandigarh  Chandigarh,30.731423,76.783843,75,2 hour
Shyam Mega Mall,mall,Chandigarh,Sector 34  Chandigarh 941735  Chandigarh,30.711036,76.767242,0,2 hour 30 min
Sunny Dhiman Photography,art gallery,Chandigarh,3332 Sector 19D  Chandigarh 160019  Chandigarh,30.72713,76.78932,250,2 hour 50 min
Tank Monument,monument,Chandigarh,10C  Sector 10 (CITCO Road)  Chandigarh 160011  Chandigarh,30.749484,76.786934,80,3 hour
Temple,temple,Chandigarh,Chandigarh 160043  Chandigarh,30.722329,76.751681,0,3 hour 20 min
Temple,temple,Chandigarh,Madhya Marg  Chandigarh 160101  Chandigarh,30.713123,76.84582,0,2 hour 30 min
Temple,temple,Chandigarh,Chandigarh 160025  Chandigarh,30.762949,76.727985,0,2 hour
The Tower Of Shadows,monument,Chandigarh,Capitol Complex  Sector 1 (Sector 1)  Chandigarh 160001  Chandigarh,30.759555,76.804075,60,5 hour 10 min
Worcester County Church Of Christ,church,Chandigarh,St. Johns High School  732576,30.732599,76.811273,0,1 hour
Ampa Skywalk,mall,Chennai,No 1  627  Nelson Manickam Road  Poonamalee High Road  Aminjikarai (627  Poonamalee High Road)  Chennai 600029  Tamil Nadu,13.07368,80.22134,0,2 hour 30 min
Anna Nagar Tower Park,park,Chennai,6th .And 3Road Main Road (Anna Nagar)  Chennai 600040  Tamil Nadu,13.08655,80.21432,125,2 hour
Anthropology Building,museum,Chennai,Egmore Museum (Egmore)  Chennai 071181  Tamil Nadu,13.071227,80.257148,130,5 hour 10 min
Baynes Memorial Batist Church :- Vepery road,church,Chennai,85596,13.085559,80.267346,0,1 hour
Bougain villa park,park,Chennai,Chennai 600102  Tamil Nadu,13.0919,80.221326,100,2 hour
Chandrapuri Temple,temple,Chennai,Anna Pilai Street  Chennai 941735  Tamil Nadu,13.085096,80.279186,50,3 hour
Chennai Citi Centre,mall,Chennai,Dr. Radha Krishnan Salai (Mylapore )  Chennai 600004  Tamil Nadu,13.043142,80.273758,0,2 hour 30 min
Chennai Snake Park,zoo,Chennai,Rajbhavan Post  Chennai 600022  Tamil Nadu,13.003793,80.238821,270,4 hour 10 min
Chennai Snake Park,zoo,Chennai,Guindy National Park  Sardar Patel Road  Rajbhavan Post  Chennai 600022  Tamil Nadu,13.004175,80.238313,90,3 hour 20 min
Christ Church,church,Chennai,Chennai  Tamil Nadu,13.066086,80.269864,0,1 hour
CSI William Charles Memorial Church  Broadway,church,Chennai,,13.092092,80.285432,0,1 hour
Dakshinachitra,amusement park,Chennai,Madras  Craft Foundation  G3 Madhurams Urur Olcott Road Besant  Chennai 600090  Tamil Nadu,13.065482,80.282206,350,3 hour 35 min
Dash 'N' Splash Water Park,amusement park,Chennai,114 Thambu Chetty Street  Parrys  Chennai 095723  Tamil Nadu,13.095577,80.289616,400,4 hour 40 min
Ethnic Tanjore Arts,art gallery,Chennai,18 Duraiswamy Road  T  Chennai 600017  Tamil Nadu,13.09122,80.277676,180,2 hour 50 min
Express Avenue,mall,Chennai,No. 2  Club House Road (Mount Rd.)  Chennai 600002  Tamil Nadu,13.058641,80.264114,0,2 hour 30 min
Ezhilagam,monument,Chennai,941735,13.071426,80.286036,60,3 hour 20 min
Fort Museum,museum,Chennai,Ford St George  Chennai 600009  Tamil Nadu,13.080694,80.28769,200,4 hour 10 min
Fort Public Park,park,Chennai,Rajaji Salai  Chennai  Tamil Nadu,13.077178,80.287638,50,2 hour
GBcoloring,art gallery,Chennai,Gb Coloring  Wallace Garden 2nd Street  Thousand Lights West  Thousand Lights  Chennai  Tamil Nadu  Ấn Độ (Wallace Garden 2nd Street)  Chennai 600006  Tamil Nadu,13.07620055,80.26999712,160,2 hour 20 min
Goverment Museum,museum,Chennai,,13.071603,80.257171,220,4 hour 20 min
Government Museum,museum,Chennai,486 Beside Goverment Maternity Hospital  Pantheon Road  Egmore  Chennai 600008  Tamil Nadu,13.071303,80.256455,210,5 hour 10 min
Government Museum Egmore,museum,Chennai,Government Museum Chennai  Egmore (Pantheon Road)  Chennai 600008  Tamil Nadu,13.070124,80.256968,180,3 hour 20 min
Gujarat Amusement Industries,amusement park,Chennai,135 Linghi Chty St  Chennai 600001  Tamil Nadu,13.068696,80.261328,290,2 hour 29 min
Nageshwara Rao Park,park,Chennai,Luz Church Road  Mylapore (Luz Ave.)  Chennai 600004  Tamil Nadu,13.036444,80.263442,50,2 hour
P Orr and Sons P. Ltd.,monument,Chennai,Anna Salai  Mount Road  Chennai 600002  Tamil Nadu,13.06856,80.27176,40,4 hour 10 min
Pallavan House,monument,Chennai,Anna Salai  Chennai 600009  Tamil Nadu,13.073526,80.275969,90,3 hour 30 min
Panagal Park,park,Chennai,Tnagar  Chennai 600017  Tamil Nadu,13.041199,80.233036,100,2 hour
Parthasarathy Temple,temple,Chennai,Triplicane  Chennai 941735  Tamil Nadu,13.053826,80.277078,50,3 hour
Perambur Park,amusement park,Chennai,,13.108921,80.242503,280,2 hour 28 min
Phoenix Market City,mall,Chennai,142 Velachery Main Road (Velachery)  Chennai 600042  Tamil Nadu,12.991893,80.217165,0,2 hour 30 min
Poompuhar,art gallery,Chennai,Anna Salai  Mount Road  Chennai 600002  Tamil Nadu,13.065461,80.266892,180,2 hour 50 min
Ripon Buildings,monument,Chennai,Chennai 941735  Tamil Nadu,13.081772,80.274564,50,3 hour 20 min
Sri Kalikambal Temple,temple,Chennai,212 Thambu Chetty Street (George Town)  Chennai 941735  Tamil Nadu,13.094813,80.288801,50,2 hour 40 min
St. Mary's Armenian Church,church,Chennai,1 Armenian St (Netaji Subhash Chandra Bose Rd)  Chennai  Tamil Nadu,13.08917,80.287341,0,1 hour
St.Anthony's Church,church,Chennai,30 Link Road  Chennai 600032  Tamil Nadu,13.089962,80.28769,0,1 hour
Temple,temple,Chennai,Netaji Subhash Chandra Bose Road  Chennai 600003  Tamil Nadu,13.088794,80.28052,0,2 hour 20 min
Temple,temple,Chennai,Frazer Bridge Road  Chennai 600003  Tamil Nadu,13.085867,80.281127,0,2 hour 40 min
Vannam,art gallery,Chennai,2910-b  14th Main Road  Shanti Colony  Anna Nagar West (2910-B)  Chennai 600040  Tamil Nadu,13.081675,80.215155,190,2 hour 50 min
Vgp Universal Kingdom,amusement park,Chennai,Injambakkam  Chennai 600020  Tamil Nadu,12.996334,80.252508,350,3 hour 35 min
Vinyasa Art Gallery,art gallery,Chennai,Music Academy Premises  168 T T K Road  Chennai 600014  Tamil Nadu,13.087015,80.2864,170,3 hour 30 min
VR Mall,mall,Chennai,Metro Zone 44  Pillaiyar Koil Street  Jawaharlal Nehru Road  Anna  Chennai 600040  Tamil Nadu,13.080619,80.197324,0,2 hour 30 min
Zero Milestone,monument,Chennai,Muthuswamy Bridge  Park Town  Chennai 600003  Tamil Nadu,13.080427,80.281011,100,3 hour
3 february Park,amusement park,Delhi,,28.677287,77.189099,300,3 hour 30 min
Adventure Island,amusement park,Delhi,Rithala (Rohini)  New Delhi 110085  Delhi,28.724134,77.113775,280,2 hour 28 min
Appu Ghar,amusement park,Delhi,Gate 9  New Delhi 110002  Uttar Pradesh,28.616828,77.243332,350,3 hour 35 min
Central Baptist Church,church,Delhi,Chandni  Delhi 110006  Delhi,28.653945,77.233676,0,1 hour
Church,church,Delhi,New Delhi 110092  Delhi,28.63542,77.274759,0,1 hour
DLF Emporio,mall,Delhi,4 Near Vikrant Hotel  Nelson Mandela Marg  Vasant Kunj  New Delhi 110070  Delhi,28.543489,77.156908,0,2 hour 30 min
DLF Place Saket,mall,Delhi,Saket (NA)  New Delhi 110017  Delhi,28.528261,77.21685,0,2 hour 30 min
Humayun’s Tomb,monument,Delhi,Bharat Scouts And Guides Marg  New Delhi 110013  Delhi,28.593116,77.246144,50,5 hour 10 min
India Gate,monument,Delhi,Gate C-Hexagon (Rajpath)  New Delhi 110001  Delhi,28.612897,77.229465,70,3 hour 20 min
India Safaris,zoo,Delhi,42 Community Center  Kailash Colony Extension  Zamrudpur  New Delhi 110048  Delhi,28.533019,77.293098,400,3 hour 20 min
Indira Gandhi Memorial Museum,museum,Delhi,1 Safdarjung Road  Akbar Road  New Delhi 110011  Delhi,28.599844,77.206138,180,3 hour 20 min
Jai Prakash Narain Memorial Park,park,Delhi,New Delhi 641184  Delhi,28.641117,77.240601,90,2 hour
Kunzum Travel Cafe,art gallery,Delhi,T-49  Ground Floor  Hauz Khas Village  New Delhi 110016  Delhi,28.553573,77.19451,170,2 hour 10 min
Kuzart Lane,art gallery,Delhi,Building Number 2  Hauz Khas Village  New Delhi 110016  Delhi,28.554946,77.194974,160,3 hour 30 min
Lal Bangla Monument,monument,Delhi,New Delhi 110003  Delhi,28.600386,77.23827,80,3 hour 20 min
Lalit Kala Academy,art gallery,Delhi,Copernicus Marg  New Delhi 110065  Delhi,28.624598,77.231241,130,3 hour 10 min
Lodhi Gardens,park,Delhi,Lodhi Road  New Delhi 110004  Delhi,28.591492,77.220985,50,2 hour
MBCC,zoo,Delhi,,28.571156,77.264674,400,5 hour 10 min
Moments Mall,mall,Delhi,Moti (at Patel Rd)  New Delhi 941735  Delhi,28.656944,77.146831,0,2 hour 30 min
Monument,monument,Delhi,,28.631873,77.149287,120,3 hour 20 min
National Crafts Museum | राष्ट्रीय शिल्प संग्रहालय,museum,Delhi,Pragati Maidan (Bhairon Marg)  New Delhi 110001  Delhi,28.613494,77.242117,150,4 hour 20 min
National Gallery of Modern Art,art gallery,Delhi,Shershah Road (India Gate C-Hexagon)  New Delhi 110003  Delhi,28.609286,77.234558,200,3 hour 10 min
National Gandhi Museum,museum,Delhi,Raj Ghat (Mahatma Gandhi Marg)  New Delhi 110002  Delhi,28.6388,77.245951,180,3 hour 20 min
National Museum,museum,Delhi,Janpath  New Delhi 110001  Delhi,28.611752,77.218718,200,4 hour 10 min
National Zoological Park,zoo,Delhi,Off Sunder (Mathura Rd)  New Delhi 110003  Delhi,28.607572,77.241515,150,4 hour 10 min
Nehru Park,park,Delhi,Chanakyapuri  New Delhi  Delhi,28.591724,77.192791,50,2 hour
Pandara Park,park,Delhi,Pandara Road  New Delhi 110003  Delhi,28.607797,77.229778,50,2 hour
Park Plaza Delhi CBD Shahdara,park,Delhi,Plot No 32  Central Business  District  Delhi 110032  Delhi,28.659032,77.298142,150,2 hour
Ramlila Maidan,amusement park,Delhi,Near New Delhi Metro Station  New Delhi 230698  Delhi,28.641917,77.229273,280,2 hour 28 min
Rashtrapati Bhavan,monument,Delhi,Raisina Hills  New Delhi 110004  Delhi,28.614205,77.20909,110,5 hour 10 min
Red Fort Archaeological Museum,museum,Delhi,Netaji Subhash Road (Delhi 110006)  New Delhi 110006  Delhi,28.654558,77.243493,250,3 hour 30 min
Samachar Market,mall,Delhi,Near Samchar Apartments (Mayur Vihar 1 Ext.)  New Delhi 110091  Delhi,28.597871,77.295562,0,2 hour 30 min
Santushti Shopping Centre,mall,Delhi,New Delhi 941735  Delhi,28.59516,77.198117,0,2 hour 30 min
Sriram Centre For Art And Culture,art gallery,Delhi,New Delhi  Delhi,28.626988,77.232979,150,2 hour 10 min
St Martin Church,church,Delhi,Birjlal Dua Marg (Birjlal Dua Marg)  New Delhi 110010  Delhi,28.595591,77.146149,0,1 hour
St Mary's Church,church,Delhi,S P Mukherji Marg  110006  Delhi,28.659773,77.234661,0,1 hour
St Paul's Church,church,Delhi,Parade Road (Parade Rd)  New Delhi 110010  Delhi,28.714506,77.213458,0,1 hour
Temple,temple,Delhi,Netaji Subhash Marg  New Delhi 110006  Delhi,28.658871,77.23658,0,3 hour 20 min
Temple,temple,Delhi,Hamilton Road  New Delhi 110002  Delhi,28.662882,77.242328,0,2 hour 30 min
Temple,temple,Delhi,Gokhale Marg  New Delhi 110006  Delhi,28.666287,77.225289,0,2 hour
Temple,temple,Delhi,Idgah Road  New Delhi 110055  Delhi,28.653742,77.212936,0,3 hour
Temple,temple,Delhi,Mahashaya Srikrishna Marg  New Delhi 110002  Delhi,28.629661,77.242365,0,2 hour 20 min
The Zoo,zoo,Delhi,Said Ul Ajaib (Garden of 5 senses)  Delhi 941735  Delhi,28.513554,77.200311,200,3 hour 30 min
Tuk-tuk. Road Tothe Hell),amusement park,Delhi,633655,28.633789,77.218295,250,2 hour 25 min
Zoo,zoo,Delhi,,28.631873,77.149287,200,3 hour 20 min
Accoland Amusement Park,amusement park,Guwahati,Rani  Guwahati  Assam,26.080409,91.611674,300,3 hour 30 min
Assam State Museum,museum,Guwahati,Gnb Road  Guwahati 781001  Assam,26.185153,91.752302,200,4 hour 10 min
Assam State Zoo,zoo,Guwahati,R G Baruah Road  Guwahati 941735  Assam,26.163593,91.782694,400,5 hour 10 min
Assam State Zoo Cum Botanical Garden,zoo,Guwahati,R G Baruah Road  Guwahati 781005  Assam,26.16328,91.781936,150,4 hour 10 min
Bramhaputra River Heritage Centre,museum,Guwahati,Guwahati 781030  Assam,26.18843,91.74328,200,4 hour 10 min
Central Telegraph Office,monument,Guwahati,Panbazar (Hem Baruah Road)  Guwahati 781001  Assam,26.187234,91.746003,70,4 hour 10 min
Christ Church CNI,church,Guwahati,Pan Bazaar (Opp Cotton Collage)  Guwahati 026502  Assam,26.18851,91.752033,0,1 hour
Christ The Bearer Of The Good News Cathedral,church,Guwahati,781022  Assam,26.134492,91.803338,0,1 hour
Decor India,amusement park,Guwahati,Anndi Complex Main Road  Guwahati 781007  Assam,26.170271,91.762327,360,3 hour 36 min
Dhiran Market,mall,Guwahati,941735,26.183471,91.742029,0,2 hour 30 min
Dispur Baptist Church,church,Guwahati,Guwahati 781005  Assam,26.155835,91.779,0,1 hour
Dona Planet,mall,Guwahati,Bhangagarh (G S Road)  781005  Assam,26.161302,91.772306,0,2 hour 30 min
Gandhi Mandap,monument,Guwahati,Guwahati  Assam,26.175114,91.76263,120,3 hour 30 min
Gandhi Mandap,monument,Guwahati,941735,26.150589,91.806243,70,4 hour 20 min
Gandhi Mandap,museum,Guwahati,Guwahati  Assam,26.175114,91.76263,250,3 hour 30 min
Gurudwara,temple,Guwahati,,26.181578,91.741003,50,3 hour
Guwahati Planetarium,museum,Guwahati,Mg Road (M G Road)  Guwahati 781001  Assam,26.19135,91.752009,200,4 hour 10 min
Hotel Empire Market,mall,Guwahati,941735,26.183598,91.741402,0,2 hour 30 min
Hub,mall,Guwahati,Bhangagarh (G S Road)  Guwahati 781005  Assam,26.16672,91.766994,0,2 hour 30 min
Joie de Vivre Art Studio,art gallery,Guwahati,Gulmohar Apartments  Mahatma Gandhi Path  Gs Road  Guwahati 781005  Assam,26.156958,91.780862,130,2 hour 50 min
KUKI WORSHIP SERVICE  Shine For Christ,church,Guwahati,781022  Assam,26.143751,91.813263,0,1 hour
Mybusinessman,art gallery,Guwahati,Borah Market Complex (Zoo Road)  Guwahati 781024  Assam,26.163241,91.779996,150,2 hour 50 min
Nehru Park,park,Guwahati,Cotton College Road  Pan Bazaar (Hem Barua Road)  Guwahati 781001  Assam,26.188528,91.747184,90,2 hour
Prashaanti Sukreswar Ghat Park,park,Guwahati,,26.187456,91.740838,150,2 hour
Ravindra Bhawan,art gallery,Guwahati,665922,26.185341,91.757944,170,2 hour 50 min
Regional Science Center,museum,Guwahati,Jawaharnagar  Khanapara  Guwahati 781022  Assam,26.120329,91.815504,220,4 hour 20 min
Sarbajanin Kali Mandir,temple,Guwahati,Paltan Bazar  941735,26.179101,91.747119,50,2 hour
Sati Radhika Prashaanti Udyan,park,Guwahati,Uzaan Bazar,26.19349,91.752643,100,2 hour
Shradhanjali Kanan (শ্ৰদ্ধাঞ্জলী কানন্),park,Guwahati,Opposite State Zoo (R G Baruah Rd.)  Guwahati 781024  Assam,26.164258,91.778767,100,2 hour
Sree Chaitanya Gadiya Math,temple,Guwahati,Paltan Bazar  Guwahati 941735  Assam,26.179836,91.747935,50,3 hour
Srimanta Sankaradeva Kalakshetra,art gallery,Guwahati,Panjabari Panbazar (Panjabari Rd)  Guwahati 781008  Assam,26.182974,91.747268,130,2 hour 20 min
Srimanta Shankardev Uddhayan,amusement park,Guwahati,Bharalumuhk (M.G Road)  Guwahati 781009  Assam,26.195414,91.78354,350,3 hour 35 min
St Josephs Cathedral Church,church,Guwahati,Pan Bazar  Guwahati 781001  Assam,26.185356,91.746378,0,1 hour
Statue of Doctor Bhupen Hazarika,monument,Guwahati,Dighalipukhuri (GNB Rd.)  Guwahati 941735  Assam,26.186042,91.751701,70,4 hour 20 min
Sukleswar Mandir,temple,Guwahati,Guwahati  Assam,26.188687,91.743773,50,2 hour 20 min
Sukreshwar Temple,temple,Guwahati,941735,26.187894,91.740945,50,2 hour 40 min
Tarun ram Phukan Park,park,Guwahati,,26.175453,91.731743,100,2 hour
Udyog Bhawan,monument,Guwahati,Bamunimaidam  Guwahati 781003  Assam,26.185329,91.787203,100,3 hour
Vishal Mega Mart,mall,Guwahati,Amaze Shopping Mall  At Road  Paltan Bazar (A T Road)  Guwahati 781001  Assam,26.180086,91.746214,0,2 hour 30 min
Db Mall,mall,Gwalior,Gwalior 474002  Madhya Pradesh,26.216046,78.184465,0,2 hour 30 min
Deen Dayal Mall,mall,Gwalior,Gwalior 941735  Madhya Pradesh,26.209599,78.16642,0,2 hour 30 min
Doctor Bheemrao Ambedkar Park,park,Gwalior,Phoolbagh (Lashkar)  Gwalior  Madhya Pradesh,26.211548,78.168704,125,2 hour
Gawalior Zoo,zoo,Gwalior,Phool  941735  Madhya Pradesh,26.229454,78.157664,400,4 hour 30 min
Gole Ka Mandid,art gallery,Gwalior,maharaj complex  Gwalior 474009  Madhya Pradesh,26.202172,78.161866,130,2 hour 10 min
Gujari Mahal Museum,museum,Gwalior,Gwalior Fort  Gwalior 474003  Madhya Pradesh,26.233867,78.170468,140,4 hour
Gurudwara Data Bandi Chod,temple,Gwalior,,26.223623,78.165974,50,3 hour 20 min
Gurudwara Sahib Phool Baag,temple,Gwalior,,26.209168,78.166352,50,2 hour
Gwalior,monument,Gwalior,214155,26.214244,78.190911,60,5 hour 10 min
Gwalior,monument,Gwalior,214155,26.214244,78.190911,40,3 hour 20 min
Gwalior Archeological Museum,museum,Gwalior,,26.20694,78.168927,100,3 hour 30 min
Gwalior Branch,monument,Gwalior,Sarovar Plaza  Lower Ground  Lashkar  Gwalior 474001  Madhya Pradesh,26.204083,78.158285,90,2 hour 30 min
Gwalior Fort,museum,Gwalior,Gwalior Road  Gwalior 222589  Madhya Pradesh,26.230274,78.16875,150,4 hour 20 min
Gwalior  Madhya Pradesh,monument,Gwalior,214155  Madhya Pradesh,26.214244,78.190911,100,3 hour
Jaivilas Palace,museum,Gwalior,,26.205944,78.168896,140,4 hour
Kalan Wathika,art gallery,Gwalior,,26.212517,78.178473,150,2 hour 10 min
Manshapoorna Hanuman Mandir,temple,Gwalior,Padaw  941735,26.213109,78.180223,50,3 hour 20 min
Mar Thoma Church,church,Gwalior,University Road  Anupam Nagar  Saraswati  Gwalior 474002  Madhya Pradesh,26.20921,78.200424,0,1 hour
Maya lifestyle,mall,Gwalior,941735,26.206859,78.188334,0,2 hour 30 min
Mela Ground,park,Gwalior,,26.233054,78.218938,130,2 hour
Navratan Carpets,art gallery,Gwalior,Sanda Baba Ki Bagiya  Gali No 1  Laxmi Ganj  Gwalior 474001  Madhya Pradesh,26.210215,78.143785,170,2 hour 20 min
Nehru Park,park,Gwalior,Campu (Lashkar)  Gwalior  Madhya Pradesh,26.197037,78.153665,100,2 hour
Phool Bagh,park,Gwalior,Phool Bagh Circle  Lashkar (Kila Gate Road)  Gwalior 474007  Madhya Pradesh,26.211087,78.169331,75,2 hour
Phoolbagh Chowk,monument,Gwalior,Maharani Laxmibai Road  Gwalior 474009  Madhya Pradesh,26.211842,78.16996,70,3 hour 20 min
RMTU Art Gallery,art gallery,Gwalior,,26.198543,78.16581,150,3 hour 30 min
Saas Bahu Ka Mandir,temple,Gwalior,941735,26.223591,78.170873,50,2 hour
St John Baptist Church,church,Gwalior,Gwalior 474001  Madhya Pradesh,26.205339,78.157148,0,1 hour
St John Cathedral,church,Gwalior,Kati Gati Road  Gwalior 474001  Madhya Pradesh,26.206296,78.158318,0,1 hour
St Paul S Church,church,Gwalior,Morar  Gwalior 474006  Madhya Pradesh,26.227339,78.220701,0,1 hour
State Archaeological Museum,museum,Gwalior,Gwalior 233725  Madhya Pradesh,26.221818,78.16626,140,4 hour
Sun City Amusement Park,amusement park,Gwalior,Race Course Road  Mela Ground  Thatipur  Gwalior 474005  Madhya Pradesh,26.227456,78.206517,360,3 hour 36 min
Teli Ka Mandir,temple,Gwalior,941735,26.220663,78.163465,50,2 hour 40 min
Tikoniya Park,park,Gwalior,Infront Of D 114  Vinay Nagar Road  Sector 4  Vinay  Gwalior 474012  Madhya Pradesh,26.227002,78.158549,100,2 hour
Victory Churches,church,Gwalior,66 Mayur Nagar  Thatipur  Gwalior 474011  Madhya Pradesh,26.218561,78.204398,0,1 hour
Vishal Mega Mart,mall,Gwalior,Shop No C-5 (Opposite Hotel Central Park  City Center)  Gwalior 941735  Madhya Pradesh,26.211121,78.1872,0,2 hour 30 min
Vishal Mega Mart,mall,Gwalior,Bohdapur Road (Near Bharat Petroleum  Transport Nagar)  Gwalior 941735  Madhya Pradesh,26.234274,78.147008,0,2 hour 30 min
Birla Mandir,temple,Hyderabad,Adarsh  Hyderabad 503111  Telangana,17.405339,78.469385,150,2 hour 40 min
Birla Mandir,temple,Hyderabad,Adarsh  Hyderabad 503111  Telangana,17.405339,78.469385,50,3 hour 20 min
Birla Science Center and Museum,museum,Hyderabad,Near Birla Temple  Adarsh (Hill Fort Road)  Hyderabad 500063  Telangana,17.391506,78.470236,100,3 hour 30 min
Birla Science Center and Museum,museum,Hyderabad,Near Birla Temple  Adarsh (Hill Fort Road)  Hyderabad 500063  Telangana,17.391506,78.470236,150,4 hour 20 min
Birla Science Museum,museum,Hyderabad,Andhra Pradesh,17.403849,78.469593,130,5 hour 10 min
Birla Science Museum,museum,Hyderabad,Andhra Pradesh,17.403849,78.469593,180,3 hour 20 min
Brand Factory,mall,Hyderabad,941735,17.392341,78.47761,0,2 hour 30 min
Brand Factory,mall,Hyderabad,941735,17.392341,78.47761,0,2 hour 30 min
Canaud House,art gallery,Hyderabad,5 Lal Bahadur Stadium  Fathemaidan  Hyderabad 500001  Telangana,17.393115,78.473387,180,2 hour 10 min
Canaud House,art gallery,Hyderabad,5 Lal Bahadur Stadium  Fathemaidan  Hyderabad 500001  Telangana,17.393115,78.473387,170,3 hour 30 min
Centenary Methodist Church,church,Hyderabad,Chapel Road  Hyderabad 500001  Telangana,17.394562,78.471883,0,1 hour
Centenary Methodist Church,church,Hyderabad,Chapel Road  Hyderabad 500001  Telangana,17.394562,78.471883,0,1 hour
Chacha Nehru Park,park,Hyderabad,Masab Tank (Road No. 1  Banjara Hills)  Hyderabad 500028  Telangana,17.401536,78.450207,90,2 hour
Chacha Nehru Park,park,Hyderabad,Masab Tank (Road No. 1  Banjara Hills)  Hyderabad 500028  Telangana,17.401536,78.450207,100,2 hour
Charminar,monument,Hyderabad,Old City  Hyderabad 500002  Telangana,17.361674,78.474636,110,5 hour 10 min
Charminar,monument,Hyderabad,Old City  Hyderabad 500002  Telangana,17.361674,78.474636,50,3 hour 20 min
Chowmahala Palace,museum,Hyderabad,Moti Gali  Hyderabad  Telangana,17.359246,78.471719,210,5 hour 10 min
Chowmahala Palace,museum,Hyderabad,Moti Gali  Hyderabad  Telangana,17.359246,78.471719,180,3 hour 20 min
CPI Office,monument,Hyderabad,Maqdoom Bhavan  Hyderabad 941735  Uttar Pradesh,17.401645,78.485446,120,4 hour 20 min
CPI Office,monument,Hyderabad,Maqdoom Bhavan  Hyderabad 941735  Uttar Pradesh,17.401645,78.485446,70,5 hour 10 min
Dream Land,art gallery,Hyderabad,,17.389783,78.436882,200,2 hour 10 min
Dream Land,art gallery,Hyderabad,,17.389783,78.436882,250,3 hour 30 min
Farheen Art,art gallery,Hyderabad,Chirag Ali Lane  C.A.Lane  Abids  Hyderabad 500001  Telangana,17.390785,78.473768,190,2 hour 10 min
Farheen Art,art gallery,Hyderabad,Chirag Ali Lane  C.A.Lane  Abids  Hyderabad 500001  Telangana,17.390785,78.473768,200,3 hour 30 min
Indira Park,park,Hyderabad,Hyderabad  Telangana,17.412246,78.481448,50,2 hour
Indira Park,park,Hyderabad,Hyderabad  Telangana,17.412246,78.481448,75,2 hour
Inorbit Mall,mall,Hyderabad,Near Durgam Cheruvu  Vittal Rao (Hitech City)  Hyderabad 500034  Telangana,17.433654,78.386307,0,2 hour 30 min
Inorbit Mall,mall,Hyderabad,Near Durgam Cheruvu  Vittal Rao (Hitech City)  Hyderabad 500034  Telangana,17.433654,78.386307,0,2 hour 30 min
Jala Vihar,amusement park,Hyderabad,Necklace Road  Hyderabad  Telangana,17.42354,78.493162,400,4 hour 40 min
Jala Vihar,amusement park,Hyderabad,Necklace Road  Hyderabad  Telangana,17.42354,78.493162,360,3 hour 36 min
Jungle Safari,zoo,Hyderabad,Mahavir Vanasthali National Park  Hyderabad 500070  Telangana,17.34178,78.58418,200,5 hour 10 min
Jungle Safari,zoo,Hyderabad,Mahavir Vanasthali National Park  Hyderabad 500070  Telangana,17.34178,78.58418,150,4 hour 10 min
Kashmir Art Gallery,art gallery,Hyderabad,12 Mujadady Estates  Mehdipatnam  Hyderabad 500028  Telangana,17.395849,78.442561,200,3 hour 10 min
Kashmir Art Gallery,art gallery,Hyderabad,12 Mujadady Estates  Mehdipatnam  Hyderabad 500028  Telangana,17.395849,78.442561,250,2 hour 50 min
KBR Park,park,Hyderabad,Kbr National Park (LV Prasad Marg)  Hyderabad 591226  Telangana,17.425166,78.425011,100,2 hour
KBR Park,park,Hyderabad,Kbr National Park (LV Prasad Marg)  Hyderabad 591226  Telangana,17.425166,78.425011,150,2 hour
Lumbini Park,park,Hyderabad,Ntr Marg  Hyderabad 409799  Telangana,17.409659,78.472881,100,2 hour
Lumbini Park,park,Hyderabad,Ntr Marg  Hyderabad 409799  Telangana,17.409659,78.472881,50,2 hour
Momandme Madinaguda Store,monument,Hyderabad,Madinaguda  Hyderabad 500049  Uttar Pradesh,17.375472,78.474186,90,4 hour 20 min
Momandme Madinaguda Store,monument,Hyderabad,Madinaguda  Hyderabad 500049  Uttar Pradesh,17.375472,78.474186,100,5 hour 10 min
Nanakram Bhagwandas Science College Gate,monument,Hyderabad,Charminar Road  Hyderabad 500002  Telangana,17.36584,78.475349,70,3 hour 30 min
Nanakram Bhagwandas Science College Gate,monument,Hyderabad,Charminar Road  Hyderabad 500002  Telangana,17.36584,78.475349,80,4 hour 20 min
Nehru Zoological Park,zoo,Hyderabad,Zoo Park Main Road  Hyderabad 941735  Telangana,17.350624,78.45134,250,4 hour 30 min
Nehru Zoological Park,zoo,Hyderabad,Bahadurpura West  Hyderabad 500064  Andhra Pradesh,17.351444,78.447246,400,3 hour 50 min
Nehru Zoological Park,zoo,Hyderabad,Nh 44  Bahadurpura  Rajendra  Hyderabad 500064  Telangana,17.350496,78.451488,150,5 hour 10 min
Nexus Mall,mall,Hyderabad,Plot No S-16  Survey No 1009  Hyderabad 500072  Telangana,17.48406,78.389213,0,2 hour 30 min
Nexus Mall,mall,Hyderabad,Plot No S-16  Survey No 1009  Hyderabad 500072  Telangana,17.48406,78.389213,0,2 hour 30 min
Our Lady Of Health Church,church,Hyderabad,1 A C Guards (Khairtabad)  Hyderabad 500004  Telangana,17.406297,78.456779,0,1 hour
Our Lady Of Health Church,church,Hyderabad,1 A C Guards (Khairtabad)  Hyderabad 500004  Telangana,17.406297,78.456779,0,1 hour
Pedamma Temple,temple,Hyderabad,Jubilee Hills  Hyderabad 941735  Telangana,17.430604,78.405158,50,3 hour 20 min
Pedamma Temple,temple,Hyderabad,Jubilee Hills  Hyderabad 941735  Telangana,17.430604,78.405158,50,2 hour 30 min
PJR Statue,monument,Hyderabad,Raj Bhavan Road  Hyderabad 500004  Telangana,17.413627,78.460448,60,2 hour 30 min
PJR Statue,monument,Hyderabad,Raj Bhavan Road  Hyderabad 500004  Telangana,17.413627,78.460448,50,3 hour
Ramoji Film City,amusement park,Hyderabad,Ramoji Film City Main Road  Anaspur Village  Hyderabad 501512  Telangana,17.394158,78.47361,320,3 hour 32 min
Ramoji Film City,amusement park,Hyderabad,Ramoji Film City Main Road  Anaspur Village  Hyderabad 501512  Telangana,17.394158,78.47361,350,3 hour 35 min
Roch memorial high school,church,Hyderabad,406934,17.406789,78.456474,0,1 hour
Roch memorial high school,church,Hyderabad,406934,17.406789,78.456474,0,1 hour
Salar Jung Museum,museum,Hyderabad,Hafzalgunj  Hyderabad 941735  Telangana,17.371376,78.480391,140,4 hour
Salar Jung Museum,museum,Hyderabad,Hafzalgunj  Hyderabad 941735  Telangana,17.371376,78.480391,200,4 hour 10 min
Salarjung Museum,museum,Hyderabad,,17.371602,78.478333,100,3 hour 30 min
Salarjung Museum,museum,Hyderabad,,17.371602,78.478333,150,4 hour 20 min
Sarath City Capital,mall,Hyderabad,Hyderabad 941735  Telangana,17.457502,78.363801,0,2 hour 30 min
Sarath City Capital,mall,Hyderabad,Hyderabad 941735  Telangana,17.457502,78.363801,0,2 hour 30 min
Sharon Aamir,art gallery,Hyderabad,11-4-627/1  A C Guards  Hyderabad 500004  Uttar Pradesh,17.399101,78.459512,170,2 hour 50 min
Sharon Aamir,art gallery,Hyderabad,11-4-627/1  A C Guards  Hyderabad 500004  Uttar Pradesh,17.399101,78.459512,190,2 hour 20 min
Shree Jaganath Temple,temple,Hyderabad,Road No. 12  Banjara Hills  Hyderabad 941735  Telangana,17.41537,78.426373,50,2 hour 40 min
Shree Jaganath Temple,temple,Hyderabad,Road No. 12  Banjara Hills  Hyderabad 941735  Telangana,17.41537,78.426373,50,3 hour 20 min
Smartbridge,amusement park,Hyderabad,Benaka  Iiird Floor  Dno 6-3-248/F Road No 1 Banjara Hills  Hyderabad 500034  Telangana,17.408307,78.447615,290,2 hour 29 min
Smartbridge,amusement park,Hyderabad,Benaka  Iiird Floor  Dno 6-3-248/F Road No 1 Banjara Hills  Hyderabad 500034  Telangana,17.408307,78.447615,280,2 hour 28 min
Spencers,mall,Hyderabad,Attapur  Hyderabad 500048  Telangana,17.369836,78.429063,0,2 hour 30 min
Spencers,mall,Hyderabad,Attapur  Hyderabad 500048  Telangana,17.369836,78.429063,0,2 hour 30 min
St. Joseph Cathedral,church,Hyderabad,Gun Foundry  Hyderabad 396713  Uttar Pradesh,17.396603,78.476238,0,1 hour
St. Joseph Cathedral,church,Hyderabad,Gun Foundry  Hyderabad 396713  Uttar Pradesh,17.396603,78.476238,0,1 hour
St.George's Church,church,Hyderabad,Andhra Pradesh,17.393756,78.475513,0,1 hour
St.George's Church,church,Hyderabad,Andhra Pradesh,17.393756,78.475513,0,1 hour
Tanvir Second Floor,amusement park,Hyderabad,,17.43167,78.457921,280,2 hour 28 min
Tanvir Second Floor,amusement park,Hyderabad,,17.43167,78.457921,250,2 hour 25 min
Temple,temple,Hyderabad,Kumarwadi Road  Hyderabad 500028  Telangana,17.388102,78.452839,0,2 hour
Temple,temple,Hyderabad,Balram Gali  Hyderabad 500006  Telangana,17.375333,78.459182,0,3 hour
Temple,temple,Hyderabad,Kumarwadi Road  Hyderabad 500028  Telangana,17.388102,78.452839,0,3 hour 20 min
Temple,temple,Hyderabad,Balram Gali  Hyderabad 500006  Telangana,17.375333,78.459182,0,2 hour 30 min
The Park,park,Hyderabad,Chintal (khairatabad)  Hyderabad  Telangana,17.413399,78.453263,75,2 hour
The Park,park,Hyderabad,Chintal (khairatabad)  Hyderabad  Telangana,17.413399,78.453263,90,2 hour
Vintage Cars - Buggee Khana,amusement park,Hyderabad,Hyderabad  Telangana,17.355014,78.470992,300,3 hour 30 min
Vintage Cars - Buggee Khana,amusement park,Hyderabad,Hyderabad  Telangana,17.355014,78.470992,290,2 hour 29 min
Wildlife Sanctuaries In India,zoo,Hyderabad,No. 23  Nibav Towers  Chennai 600020  Tamil Nadu,17.399077,78.474074,90,5 hour 10 min
Wildlife Sanctuaries In India,zoo,Hyderabad,No. 23  Nibav Towers  Chennai 600020  Tamil Nadu,17.399077,78.474074,100,4 hour 10 min
Azad Chowk,monument,Jabalpur,816104  Jharkhand,23.153538,79.947465,100,4 hour 20 min
Bhanwartal Park,park,Jabalpur,Madhya Pradesh,23.163151,79.933115,125,2 hour
Christ Church,church,Jabalpur,Nehru Marg  Jabalpur 482001  Madhya Pradesh,23.164666,79.94148,0,1 hour
Disciples Church,church,Jabalpur,South  Jabalpur 482001  Madhya Pradesh,23.16375,79.942353,0,1 hour
Dumna Nature Reserve Museum,park,Jabalpur,Dumna Nature Reserve  Jabalpur 482011  Madhya Pradesh,23.169448,80.01246,150,2 hour
GRP Ground,park,Jabalpur,Jabalpur 482002  Madhya Pradesh,23.176959,79.956014,50,2 hour
Gurudwara Guru Nanak Darbar,temple,Jabalpur,Jabalpur 482001  Madhya Pradesh,23.15358,79.933132,50,2 hour 30 min
Hathital,monument,Jabalpur,,23.149929,79.920901,70,3 hour 30 min
Jabalpur City,museum,Jabalpur,Jabalpur 482001  Madhya Pradesh,23.167256,79.948105,170,3 hour 10 min
Kamaniya Gate,monument,Jabalpur,,23.175479,79.931987,60,4 hour 20 min
Kishore kumar's,museum,Jabalpur,Khandwa 450001  Madhya Pradesh,23.169585,79.924117,200,4 hour 10 min
Koshti Mandir,temple,Jabalpur,South Civil Lines  Damoh Naka (Damohnaka)  Jabalpur 482002  Madhya Pradesh,23.192779,79.925802,50,2 hour
Mahakali Temple,temple,Jabalpur,Jabalpur 482003  Madhya Pradesh,23.157534,79.89596,50,3 hour
Radha Krishna Temple,temple,Jabalpur,941735,23.139764,79.926144,50,2 hour 20 min
Rani Durgavati Museum,museum,Jabalpur,Napier Town  Jabalpur 482001  Madhya Pradesh,23.163236,79.93434,180,3 hour 20 min
Ravindra Nath Tagore Garden,park,Jabalpur,Mall Road  Jabalpur 482001  Madhya Pradesh,23.155674,79.948381,50,2 hour
Samdariya Mall,mall,Jabalpur,Samdareeya Mall  Civic Center  Jabalpur 941735  Madhya Pradesh,23.168654,79.933483,0,2 hour 30 min
Samdariya Mall,mall,Jabalpur,Civic Centre Marhatal  Jabalpur 482002  Madhya Pradesh,23.163437,79.937037,0,2 hour 30 min
See World Water Park,park,Jabalpur,Tewar  Bhedaghat Road  Jabalpur 482002  Madhya Pradesh,23.161589,79.962225,90,2 hour
Shaheed Smarak,monument,Jabalpur,Near Jabalpur Municipal Corporation (Wright Town)  Jabalpur 482002  Madhya Pradesh,23.170093,79.927187,70,3 hour
Shastri Bridge,monument,Jabalpur,After Madan Mahal  Jabalpur 482001  Madhya Pradesh,23.157103,79.929246,110,4 hour 20 min
Shiva Temple,temple,Jabalpur,Kachnar city  Jabalpur 941735  Madhya Pradesh,23.186571,79.899666,50,2 hour 20 min
South Avenue Mall,mall,Jabalpur,941735,23.124342,79.927943,0,2 hour 30 min
South Avenue Mall,mall,Jabalpur,Plot No 36/4  Narmada Road  Jabalpur 482008  Madhya Pradesh,23.124218,79.927433,0,2 hour 30 min
St Andrews Mar Thoma Church,church,Jabalpur,Ridge Road  Jabalpur 482001  Madhya Pradesh,23.159244,79.955956,0,1 hour
St Ignatius Loyola Church,church,Jabalpur,Govindh Bhavan Colony  South  Jabalpur 482001  Madhya Pradesh,23.164209,79.964337,0,1 hour
St Pauls Church,church,Jabalpur,Jabalpur 482002  Madhya Pradesh,23.175802,79.952432,0,1 hour
Vishal Mega Mart,mall,Jabalpur,Shop No 932M Titanium (Near Maharashtra High School  Wright Town)  Jabalpur 941735  Madhya Pradesh,23.167981,79.925995,0,2 hour 30 min
Albert Hall Museum,museum,Jaipur,Ram Niwas Garden  Jaipur 302004  Rājasthān,26.911733,75.819631,100,3 hour 30 min
All Saints Church Jaipur,church,Jaipur,799382  Rājasthān,26.917785,75.799276,0,1 hour
Anokhi Museum,art gallery,Jaipur,,26.992363,75.850903,250,2 hour 10 min
Art and Creation,art gallery,Jaipur,1615 Khejron Rasta  Indira Bazar  Jaipur 302001  Rājasthān,26.910189,75.804144,170,2 hour 50 min
Bani Park,park,Jaipur,D-160  Kabir Marg  Jaipur 303012  Rajasthan,26.924408,75.789187,50,2 hour
Catholic Church,church,Jaipur,Ghate Gate  Jaipur 302003  Rājasthān,26.912367,75.787246,0,1 hour
Central Park,park,Jaipur,Statue Circle  Jaipur  Rājasthān,26.907151,75.806091,75,2 hour
Deer park,park,Jaipur,,26.905794,75.801405,150,2 hour
Fun Kingdom,amusement park,Jaipur,Near Sfs Agarwal Farm M Sarovar  Jaipur 302020  Rājasthān,26.873711,75.752797,350,3 hour 35 min
Gaitor Ki Chhatriyan,monument,Jaipur,Jaipur 302002  Rājasthān,26.940193,75.829104,90,3 hour
Galta,zoo,Jaipur,,26.916251,75.838327,200,3 hour 30 min
Galwar Bagh (Monkey Temple),temple,Jaipur,Jaipur 941735  Rājasthān,26.917292,75.851172,250,3 hour
Ganesh Ji Temple,temple,Jaipur,Moti Doongri Ganesh Temple  Jaipur 176048  Rājasthān,26.89459,75.816471,100,2 hour 20 min
Gaurav Tower,mall,Jaipur,Jawaharlal Nehru Marg  Malviya (JLN Marg)  Jaipur 302020  Rājasthān,26.855408,75.806711,0,2 hour 30 min
Govind Dev Ji Temple,temple,Jaipur,Jai Niwas Bagh  City Palace  Jaipur 302002  Rājasthān,26.929071,75.824042,50,2 hour 30 min
Hawa Mahal,monument,Jaipur,Hawa Mahal Road (Badi Choupad)  Jaipur 302002  Rājasthān,26.923936,75.826744,60,4 hour 20 min
Iswari,monument,Jaipur,Jaipur 302002  Rājasthān,26.924427,75.820819,80,2 hour 30 min
Jaipur Zoo,zoo,Jaipur,Museum Road  Ram Niwas Garden  C Scheme  Kailash  Jaipur 302001  Rājasthān,26.912057,75.82122,300,3 hour 50 min
JKK-Jaipur  Jawahar Kala Kendra,art gallery,Jaipur,J.L.N.Marg (Bajaj Nagar Signal)  Jaipur 302013  Rājasthān,26.876627,75.809082,160,3 hour 10 min
Khole Ke Hanuman Ji,temple,Jaipur,Hanuman Mandir Marg  Jaipur 941735  Rājasthān,26.934587,75.850163,50,3 hour 20 min
Madhavendra Palace,museum,Jaipur,,26.910775,75.802151,200,4 hour 10 min
MGF Metropolitan,mall,Jaipur,Sahkar Circle (Sardar Patel Marg)  Jaipur 941735  Rājasthān,26.902413,75.793824,0,2 hour 30 min
Museum,museum,Jaipur,City Palace  Jaipur 302003  Rājasthān,26.926021,75.823986,250,3 hour 30 min
New Apostolic Church,church,Jaipur,8/A  Nirmal Path  Ajmer Road  Jaipur 302019  Rājasthān,26.912367,75.787246,0,1 hour
OYO Premium Bani Park,park,Jaipur,D-251  Near Collectorate Circle  Jaipur 302016  Rajasthan,26.926751,75.789864,150,2 hour
Pentecostal Mission Church,church,Jaipur,Sector - 8  Vidhyadhar Nagar  Jaipur 302016  Rājasthān,26.96049,75.791841,0,1 hour
Pink Pearl,amusement park,Jaipur,10th Mile  Ajmer Express Highway  Jaipur 302002  Rājasthān,26.869701,75.693477,250,2 hour 25 min
Pink Pearl-The Fun City,amusement park,Jaipur,Anjali Chamber  Raj Bhavan Road  Jaipur 302006  Rājasthān,26.909842,75.782158,300,3 hour 30 min
Pink Square,mall,Jaipur,Plot No 1/2  Govind Marg  Saket Colony  Adarsh (raja park)  Jaipur 302004  Rājasthān,26.903131,75.836954,0,2 hour 30 min
PUNO - Adventure and Trampoline,amusement park,Jaipur,Dr. Rajendra Prasad Nagar'a  192-196  Nh52  Jaipur 302019  Rājasthān,26.920089,75.787565,250,4 hour
PUNO - Adventure and Trampoline,amusement park,Jaipur,Dr. Rajendra Prasad Nagar'a  192-196  Nh52  Jaipur 302019  Rājasthān,26.934322,75.795895,350,4 hour
Regional Science Centre and Science Park,park,Jaipur,Behind Tb Hospital  Shastri  Jaipur 302016  Rājasthān,26.940716,75.798693,75,2 hour
Royal Rajasthan,art gallery,Jaipur,B - 17  B Choma House  C Scheme  - 0  Jaipur 302001  Rājasthān,26.910091,75.804196,200,3 hour 10 min
Saint Andrews Church,church,Jaipur,Railway Station Road  Jaipur 302001  Rājasthān,26.926801,75.807299,0,1 hour
Shree Ganpati Holidays,zoo,Jaipur,313  Vaishali  Tower  Jaipur 302021  Rajasthan,26.794371,75.808043,200,5 hour 10 min
Shri Jagat Siromanji Temple,temple,Jaipur,Amber Fort  Jaipur 941735  Rājasthān,26.987409,75.850997,50,2 hour
SRC Museum Of Indology and Universal Institute Of Orientology,museum,Jaipur,24 Gangwal Park  Jaipur 302004  Rājasthān,26.912367,75.787246,210,5 hour 10 min
Stepwell Site,monument,Jaipur,Āmer 303101  Rājasthān,26.991112,75.8512,60,5 hour 10 min
The Rrap Hub,art gallery,Jaipur,Jaipur 302001  Rājasthān,26.912515,75.804625,150,2 hour 10 min
Town Hall  Jaipur,monument,Jaipur,941735,26.939676,75.836593,90,2 hour 30 min
Triton Mall,mall,Jaipur,Kalwar Road  Jaipur 941735  Rajasthan,26.940796,75.771262,0,2 hour 30 min
Umaid Bhavan Palace,museum,Jaipur,Jodhpur  Rājasthān,26.925652,75.787662,250,3 hour 30 min
World Trade Park,mall,Jaipur,J. L. N Marg  Jaipur 302017  Rājasthān,26.853515,75.805058,0,2 hour 30 min
Antique Museum,museum,Kochi,Synagogue Lane  Jew Town  Mattanchery  Kochi 682002  Kerala,9.955726,76.260377,180,3 hour 20 min
Ayyappa Temple,temple,Kochi,941735,9.952233,76.273425,125,3 hour
Centre Square,mall,Kochi,M G Road  Kochi 682035  Kerala,9.978,76.283492,0,2 hour 30 min
David Hall,art gallery,Kochi,River Road  Kochi 682001  Kerala,9.965118,76.239356,160,3 hour 30 min
Durbar Hall Art Gallery,art gallery,Kochi,Durbar Hall Road  Ernakulam South  Kochi 682011  Kerala,9.968649,76.283724,150,3 hour 10 min
Dutch Palace,museum,Kochi,Jew Town  Mattancherry  Kochi  Kerala,9.958368,76.259271,130,5 hour 10 min
Grand Mall,mall,Kochi,Near Edappally Signal  Kochi 941735  Kerala,10.024231,76.308759,0,2 hour 30 min
Holy Family Church,church,Kochi,Nazarath Moolamkuri Road  Kochi 682002  Kerala,9.944464,76.248013,0,1 hour
International Tourism Police Station and Police Museum,museum,Kochi,,9.956142,76.260178,180,3 hour 20 min
Jain Temple,temple,Kochi,941735,9.96104,76.255089,50,3 hour
Jain Temple (Jalaram Dham)  Mattanchary,temple,Kochi,941735,9.96043,76.255249,50,2 hour 20 min
Kids City Cochin,amusement park,Kochi,Infopark Road Kuzhikatumoola Jn  682030  Kerala,10.015736,76.356692,300,3 hour 30 min
Kishor Spices Company,art gallery,Kochi,Vi/37  Jew Town  Kochi 682002  Kerala,9.961913,76.256045,190,3 hour 10 min
Kozhikode,church,Kochi,Kochi 682507  Kerala,9.929341,76.248535,0,1 hour
Lorretto Church,church,Kochi,Moolamkuzhi,9.938393,76.24934,0,1 hour
Lulu Mall,mall,Kochi,NH 47  Edapally  941735  Kerala,10.026541,76.308092,0,2 hour 30 min
Lulu Mall,mall,Kochi,34\U002F1000 N.H 47 (NH 47)  Kochi 682024  Kerala,10.02691,76.308109,0,2 hour 30 min
Mattancherry Palace,monument,Kochi,Palace Road  Kochi 682002  Kerala,9.958218,76.259186,60,4 hour 10 min
Mattancherry Palace Museum (The Dutch Palace),museum,Kochi,Kochi  Kerala,9.958155,76.257772,130,5 hour 10 min
mattancherry star Jn,monument,Kochi,941735,9.960496,76.256495,40,3 hour 30 min
Mehaboob Park,park,Kochi,,9.964904,76.246993,125,2 hour
Paathalam,zoo,Kochi,941735,10.003546,76.279553,300,4 hour 10 min
PallathuRaman Park,park,Kochi,Veli  682001  Kerala,9.952307,76.244457,50,2 hour
Park,park,Kochi,,9.942004,76.260197,150,2 hour
Penta Meneka,mall,Kochi,Menaka Bus Stop  Kochi 941735  Kerala,9.978194,76.277025,0,2 hour 30 min
Pepper House,art gallery,Kochi,Calvathy Road  Kochi 682002  Kerala,9.968841,76.250178,150,3 hour 10 min
Pepper House,monument,Kochi,Fort  Ernākulam 941735  Kerala,9.98097,76.279647,120,5 hour 10 min
S T Marys Cathedral Basilica Church,monument,Kochi,Broadway  Marine Drive  Ernākulam 682031  Kerala,9.982817,76.275525,60,2 hour 30 min
Sarvothama Masonic Temple,temple,Kochi,Kochi 682507  Kerala,9.93217,76.253216,50,3 hour
SNC Maritime Museum,museum,Kochi,Kj Herschel Road  Veli  Kochi 682001  Kerala,9.958221,76.239512,220,4 hour 20 min
St.Mary's Church,church,Kochi,,9.929357,76.268246,0,1 hour
Temple,temple,Kochi,Gujarati Road  Kochi 682002  Kerala,9.952608,76.256231,0,2 hour 40 min
The Pepper Exchange,monument,Kochi,Jew Street (Fort Kochi)  Kochi 941735  Kerala,9.980271,76.276032,110,3 hour 30 min
Willingdon Park and Walkway,park,Kochi,Willingdon Island  Kochi  Kerala,9.965875,76.271963,150,2 hour
Wonder la,amusement park,Kochi,Pallikkara  Kochi 683565  Kerala,10.028677,76.392601,320,3 hour 32 min
Wonderla,amusement park,Kochi,,10.030729,76.378854,350,3 hour 35 min
Wonderla Amusement Park,amusement park,Kochi,Veegaland Entry Road  Pallikara  Kumarapuram Po  Kunnathunad 683565  Kerala,10.026344,76.391971,400,4 hour 40 min
Yousuf Art Gallery,art gallery,Kochi,,9.953864,76.260234,160,3 hour 10 min
Y's Mens Park,park,Kochi,Chullickal (Y's Mens Club)  Kochi 682005  Kerala,9.9462,76.253063,75,2 hour
Ambedkar Park,park,Lucknow,Gomtinagar  Lucknow 226010  Uttar Pradesh,26.848748,80.9745,150,2 hour
Bada Imambara,museum,Lucknow,Near Machchhi Bhavan  Lucknow 226003  Uttar Pradesh,26.869861,80.913242,220,4 hour 20 min
Begum Hazrat Mahal Park,park,Lucknow,Baradari  Lucknow  Uttar Pradesh,26.855199,80.934355,90,2 hour
Bhendi bazaar,park,Lucknow,,26.847853,80.921115,50,2 hour
Butler Park,park,Lucknow,Maharaja Mahmudabad Road  Lucknow 226018  Uttar Pradesh,26.852776,80.932654,50,2 hour
Cant Gurudwara,temple,Lucknow,Lucknow Cantt (cantonment road)  Lucknow  Uttar Pradesh,26.833992,80.925884,50,2 hour
Central Methodist Church,church,Lucknow,Kaiserbagh Officers Colony  Lalbagh  Lucknow 226001  Uttar Pradesh,26.845876,80.935044,0,1 hour
Christ Church,church,Lucknow,Mahatma Gandhi Marg  Raj Bhavan Colony  The Mall Avenue  Lucknow 226001  Uttar Pradesh,26.844843,80.947242,0,1 hour
Craft Museum,museum,Lucknow,Lucknow 226001  Uttar Pradesh,26.848713,80.932991,200,4 hour 10 min
East End Mall,mall,Lucknow,Polytechnik  Lucknow 941735  Uttar Pradesh,26.870143,80.996905,0,2 hour 30 min
Epiphany Church,church,Lucknow,Kaiserbagh Officers Colony  Lalbagh  Lucknow 226001  Uttar Pradesh,26.850363,80.937415,0,1 hour
Fun Republic,mall,Lucknow,Nh28  Lohia Path  Nehru Enclave  Vipin Khand  Gomti  Lucknow 226010  Uttar Pradesh,26.857993,80.976231,0,2 hour 30 min
Ganga Aquarium,zoo,Lucknow,Telibagh (Canal Ring Road  Telibagh)  Lucknow 226002  Uttar Pradesh,26.785901,80.934907,250,5 hour 10 min
Grovers Art Gallery,art gallery,Lucknow,31 Craft House  Halwasia Market  Lucknow 226001  Uttar Pradesh,26.84725,80.945103,200,2 hour 50 min
Gurudwara Yahiyyaganj,temple,Lucknow,,26.85254,80.915978,50,3 hour
Hanuman Sethu,temple,Lucknow,University Road  Lucknow 941735  Uttar Pradesh,26.860699,80.937825,50,2 hour 40 min
Hussainabad picture gallery,art gallery,Lucknow,,26.874961,80.909785,180,3 hour 30 min
Iskcon Temple,temple,Lucknow,Sri Sri Gaur Radhakrishna Mandir (Guru Govind Singh Marg)  Lucknow 226001  Uttar Pradesh,26.822925,80.920726,50,2 hour
Janpath Market,mall,Lucknow,Mahatma Gandhi Marg  Lucknow 226001  Uttar Pradesh,26.846919,80.943822,0,2 hour 30 min
Jarnail Mahal,museum,Lucknow,,26.859396,80.937371,200,4 hour 10 min
Karan,art gallery,Lucknow,852538  Maharashtra,26.852427,80.948636,200,3 hour 30 min
Lakhi Gate,monument,Lucknow,Lucknow 226001  Uttar Pradesh,26.851698,80.933014,70,5 hour 10 min
Lucknow State Museum,museum,Lucknow,Park Road  Lucknow 226001  Uttar Pradesh,26.845343,80.954952,140,4 hour
Lucknow Zoo,zoo,Lucknow,Park Road  Lucknow 941735  Uttar Pradesh,26.845368,80.951887,100,5 hour 10 min
maharana pratap Chourah,monument,Lucknow,941735,26.839734,80.937968,40,4 hour 20 min
Nawab Wazid Ali Shah Zoological Garden,zoo,Lucknow,Park Road  Lucknow 226001  Uttar Pradesh,26.844672,80.953346,200,3 hour 20 min
Nehru bal vatika near kapoorthala  aliganj  lucknow,monument,Lucknow,941735,26.886882,80.938343,110,3 hour 20 min
Parampara Art,art gallery,Lucknow,Yahiganj Iron Market  Lucknow 226003  Uttar Pradesh,26.854731,80.913219,250,3 hour 30 min
Phoenix United Mall,mall,Lucknow,Bara Birwa (Alambagh)  Lucknow 941735  Uttar Pradesh,26.799197,80.897249,0,2 hour 30 min
Prince of Wales Zoo,zoo,Lucknow,Butler Colony  Lucknow 852416  Uttar Pradesh,26.852445,80.956442,250,3 hour 30 min
Risal Dar Park,park,Lucknow,Lalkuan  Lucknow 226001  Uttar Pradesh,26.838783,80.928634,100,2 hour
Sector 15-18 Watersupply Tank,monument,Lucknow,Sector 18 (Indiranagar)  Lucknow 226016  Uttar Pradesh,26.884082,80.990373,120,4 hour 20 min
Shaheed Upvan,amusement park,Lucknow,Lucknow 226018  Uttar Pradesh,26.86366,80.926979,250,2 hour 25 min
St. अगनेस चर्च,church,Lucknow,Station Road  Lucknow 226001  Uttar Pradesh,26.83909,80.934759,0,1 hour
St. Joseph's Cathedral,church,Lucknow,Atal  Lucknow 226001  Uttar Pradesh,26.846756,80.946155,0,1 hour
State Museum,museum,Lucknow,Nawab Wazid Ali Shah Zoological Garden  Park Road  Lucknow 226001  Uttar Pradesh,26.852463,80.937196,200,4 hour 10 min
The Residency,monument,Lucknow,Lucknow 941735  Uttar Pradesh,26.860462,80.925432,50,4 hour 20 min
Wave 3,mall,Lucknow,1 Virat (Gomti Nagar)  Lucknow 226010  Uttar Pradesh,26.839968,80.915891,0,2 hour 30 min
Yahiya Ganj Gurudwara  Lucknow,temple,Lucknow,,26.856813,80.914595,50,3 hour 10 min
Zoo,zoo,Lucknow,,26.842583,80.949474,400,3 hour 50 min
3d Art Gallery,museum,Mumbai,Laxmi Mohili  Shakti Mohili Lane  Off Dr E Moses Road  Mumbai 400018  Mahārāshtra,19.101259,72.89399,110,4 hour 10 min
Almeida Park,park,Mumbai,5th Road  Mumbai 400050  Mahārāshtra,19.057654,72.83145,90,2 hour
Asiatic Society Library (Town Hall),monument,Mumbai,Shahid Bhagat Singh Road (Opp Horniman Circle  Fort)  Mumbai 400001  Mahārāshtra,18.931855,72.835698,90,3 hour 30 min
BEST Transport Museum,museum,Mumbai,V N Purav Marg  Mumbai 400031  Mahārāshtra,18.921492,72.8301,170,3 hour 10 min
Bullseye,amusement park,Mumbai,Santacruz Recreation Club  Plot-32 Nehru Road  Mumbai 400055  Maharashtra,19.077793,72.87872,280,2 hour 28 min
C-33 Ram Kutir,zoo,Mumbai,Mahim  Mumbai  Mahārāshtra,19.034996,72.843955,150,3 hour 50 min
Dcb Mini Art Gallery,museum,Mumbai,Sahar Amba Shanti Chamber  Andheri Kurla Road  Marol  Mumbai 400080  Mahārāshtra,19.093273,72.883108,100,3 hour 30 min
Dimps' Chimps,zoo,Mumbai,16th Road  Mumbai  Mahārāshtra,19.074451,72.830911,100,4 hour 20 min
Essel World,amusement park,Mumbai,Gorai Village (Borivali West)  Mumbai 400091  Mahārāshtra,19.231165,72.805796,250,2 hour 25 min
Essel world,amusement park,Mumbai,,19.234119,72.822878,300,3 hour 30 min
Flora Fountain,monument,Mumbai,Mg Road  Veer Nariman Road  Hutatma (D. N. Road  Fort)  Mumbai 400001  Mahārāshtra,18.932598,72.831537,40,2 hour 30 min
Gateway of India,monument,Mumbai,Peninsula  C Shivaji Maharaj Marg  Apollo Bandar  Colaba (near the Taj Mahal Palace & Tower)  Mumbai 400001  Mahārāshtra,18.921029,72.83314,70,2 hour 30 min
Gloria Church,church,Mumbai,Sant Savta Marg  Mumbai  Mh (Sant Savta Marg)  Mumbai 400027  Mahārāshtra,18.975185,72.834217,0,1 hour
Hanuman Temple,temple,Mumbai,Madhu Garden (Between Linking Road/S.V. Road)  Mumbai 400052  Mahārāshtra,19.071702,72.835839,50,3 hour 20 min
High Street Phoenix,mall,Mumbai,Senapati Bapat Marg (Lower Parel)  Mumbai 400013  Mahārāshtra,18.994891,72.825132,0,2 hour 30 min
Holy Cross Church  Kurla,church,Mumbai,Lal Bahadur Shastri Road  Vidya Vihar West  Kurla (Opposite Kohinoor City)  Mumbai 400070  Mahārāshtra,19.083629,72.886521,0,1 hour
Indian Mouth and Foot Painting Artists,art gallery,Mumbai,A 401  Dipti Classic  Suren Road  Andheri East  Mumbai 400093  Mahārāshtra,19.078741,72.871702,170,3 hour 10 min
Inorbit Mall,mall,Mumbai,Link Road (Malad (W))  Mumbai 400064  Mahārāshtra,19.173059,72.835496,0,2 hour 30 min
INS Vikrant Museum,museum,Mumbai,Off Shahid Bhagat Singh Marg  Mumbai 400001  Mahārāshtra,19.078977,72.907011,220,4 hour 20 min
Jehangir Art Gallery,art gallery,Mumbai,161 Mahatma Gandhi Road (Kala Ghoda)  Mumbai 400001  Mahārāshtra,18.927476,72.831662,230,2 hour 10 min
Joggers Park,park,Mumbai,Vidyavihar,19.077561,72.903255,150,2 hour
Jogger's Park,park,Mumbai,Off Carter Road (Bandra West)  Mumbai 400050  Mahārāshtra,19.059477,72.821557,150,2 hour
Joggers park L B S marg. Ghatkopar west,park,Mumbai,,19.087571,72.901873,50,2 hour
KidZania,amusement park,Mumbai,Kidzania Mumbai  R City Mall  North Wing (LBS Marg  Ghatkopar (W))  Mumbai 400086  Mahārāshtra,19.099583,72.91679,250,2 hour 25 min
Lions Club Joggers park,park,Mumbai,,19.076219,72.910361,150,2 hour
Mahim Dargah,monument,Mumbai,Mahim  Bombay (off Swatantrya Veer Savarkar Marg)  Mumbai 400016  Mahārāshtra,19.040114,72.839419,80,5 hour 10 min
Mount Mary Church (The Basilica of Our Lady of the Mount),church,Mumbai,Mount Mary Road (Cane Road)  Mumbai 400050  Mahārāshtra,19.046616,72.822347,0,1 hour
Mount Mary Church (The Basilica of Our Lady of the Mount),monument,Mumbai,Mount Mary Road (Cane Road)  Mumbai 400050  Mahārāshtra,19.046616,72.822347,60,3 hour
Museum Of Bollywood Posters,museum,Mumbai,Jio World Drive (Bandra Kurla Complex)  Mumbai 400051  Mahārāshtra,19.0535,72.851285,210,5 hour 10 min
Nehru Center  Worli  Mumbai,art gallery,Mumbai,,18.988655,72.815411,160,2 hour 10 min
Nehru Centre AC Art Gallery,art gallery,Mumbai,Nehru Centre  Dr Annie Besant Road  Dadar  Mumbai 400018  Mahārāshtra,18.988708,72.815258,130,3 hour 30 min
Our Lady of Egypt Church,church,Mumbai,Church Road  Kolivery Village  Mahatma Phule Nagar  Kalina (near st marys chowk)  Mumbai 400098  Mahārāshtra,19.078403,72.869023,0,1 hour
Our Lady of Fatima Church  Vidyavihar,church,Mumbai,Vidya Vihar (Kirol Village)  Mumbai 400086  Mahārāshtra,19.0821,72.898006,0,1 hour
Paint Photographs,art gallery,Mumbai,Mumbai  Mahārāshtra,19.073912,72.882072,200,2 hour 10 min
Palladium,mall,Mumbai,High Street Phoenix (Senapati Bapat Marg )  Mumbai 400013  Mahārāshtra,18.994413,72.824388,0,2 hour 30 min
Phoenix Marketcity,mall,Mumbai,Lal Bahadur Sashtri Marg  Kamani  Kurla West (Kurla)  Mumbai 400070  Maharashtra,19.085717,72.888931,0,2 hour 30 min
R City Mall,mall,Mumbai,Ghatkopar (L.B.S Rd.)  Mumbai 400086  Mahārāshtra,19.099346,72.916636,0,2 hour 30 min
Snow World,amusement park,Mumbai,Phoenix Market City (Kurla)  Mumbai 400070  Mahārāshtra,19.086025,72.888553,320,3 hour 32 min
Temple,temple,Mumbai,Lbs Marg  Mumbai 400070  Maharashtra,19.071368,72.875271,0,2 hour 40 min
Temple,temple,Mumbai,Nausena Vihar Road  Mumbai 400070  Maharashtra,19.079496,72.889774,0,3 hour 20 min
Temple,temple,Mumbai,Raju Bedekar Marg  Mumbai 400086  Maharashtra,19.08216,72.889895,0,2 hour 30 min
Temple,temple,Mumbai,Shahid Bhagat Kanwar Marg  Mumbai 400089  Maharashtra,19.071096,72.895384,0,2 hour
Turiya is fjnabdaofcasui,zoo,Mumbai,,19.10439,72.837096,150,5 hour 10 min
Zoo,zoo,Mumbai,Byculla  Mumbai 573532  Mahārāshtra,18.979893,72.834504,250,4 hour 30 min
Zoozoo,zoo,Mumbai,,19.054203,72.841201,100,4 hour 20 min
AHM 1840 Church CNI LIC Sq,church,Nagpur,Lic Square Kingsway,21.153533,79.081065,0,1 hour
AHM Church,church,Nagpur,Kingsway Road (Opp Kp Ground)  Nagpur 440001  Mahārāshtra,21.155804,79.082283,0,1 hour
All saints cathedral,church,Nagpur,Sadar,21.156189,79.076962,0,1 hour
bhurya Ganapati mandir mahal,temple,Nagpur,941735,21.145114,79.089825,130,2 hour 20 min
Central Museum,museum,Nagpur,Museum Road  Nagpur 078066  Mahārāshtra,21.15082,79.077966,250,3 hour 30 min
Children's Traffic Park,park,Nagpur,Vip Road (Shankar Nagar)  Nagpur 440010  Mahārāshtra,21.140264,79.066884,50,2 hour
Chitnavis Center,art gallery,Nagpur,56 Temple Road  Civil Lines Road  Civil Lines  Nagpur 440001  Mahārāshtra,21.148158,79.070423,190,3 hour 10 min
Cotton Market Chowk,monument,Nagpur,Subhash Chandra Road  Nagpur 440018  Maharashtra,21.14519,79.089545,100,3 hour 30 min
Darda Art Gallery,art gallery,Nagpur,Lokmat Bhawan (Dhantoli)  Nagpur  Mahārāshtra,21.136222,79.078935,170,2 hour 10 min
Deeksha Bhoomi,monument,Nagpur,Ramdaspeth  Nagpur 440001  Maharashtra,21.127806,79.066251,70,3 hour
Empress Mall,mall,Nagpur,Empress Mill's Chawl  Bajeria  Empress City  Nagpur  Mh  Nagpur 440018  Mahārāshtra,21.148218,79.09319,0,2 hour 30 min
Eternity Mall,mall,Nagpur,Amravati Road  Variety Square  Sitabuldi (Amravati Road)  Nagpur 941735  Mahārāshtra,21.144905,79.082531,0,2 hour 30 min
Gandhisagar Balbhavan Park,park,Nagpur,,21.144591,79.098206,130,2 hour
Highland Water Park,amusement park,Nagpur,Nagpur Amravati Highway Road  Waddhamna  Nagpur 440016  Maharashtra,21.153515,79.00576,320,3 hour 32 min
Jaswant Tuli Mall,mall,Nagpur,1053 Kamptee Road  Buddha Nagar  Balabhaupeth  Nagpur 440017  Mahārāshtra,21.17293,79.100119,0,2 hour 30 min
Kamptee Gurudwara,temple,Nagpur,,21.162093,79.084158,50,2 hour
Krazy Castle,amusement park,Nagpur,,21.127258,79.044274,350,3 hour 35 min
Lifestyle,mall,Nagpur,Katola Road  Nelson  Nagpur 440001  Mahārāshtra,21.148195,79.093126,0,2 hour 30 min
Maharaja Bag,park,Nagpur,,21.145368,79.074317,90,2 hour
Maharajbagh Zoo,zoo,Nagpur,Waroadha Road  Nagpur 941735  Mahārāshtra,21.142801,79.077844,200,4 hour 30 min
Maharajbagh Zoo,zoo,Nagpur,Amravati Road  Maharaja Bagh  Gorepeth  Nagpur 440010  Maharashtra,21.143392,79.076372,250,3 hour 50 min
Naag Bhavan,monument,Nagpur,941735,21.15371,79.065837,50,4 hour 10 min
Nagpur Central Mall,mall,Nagpur,Main Road  Nagpur 941735  Mahārāshtra,21.137243,79.068826,0,2 hour 30 min
Nagpur Museum,museum,Nagpur,Wardha Road  Nagpur 440001  Maharashtra,21.15089,79.078159,140,4 hour
Narrow Gauge Rail Museum,museum,Nagpur,,21.168056,79.09119,200,4 hour 10 min
Narrow Gauge Rail Museum,museum,Nagpur,Cse Old Railway Feeder Road  Nagpur 440017  Maharashtra,21.165206,79.090496,100,3 hour 30 min
Niranjan Gohane Art Studio,art gallery,Nagpur,Yashashree Apartments  564/B  Flat No. G-2  Behind Meditrina Hospital  Ramdaspeth  Nagpur 400010  Mahārāshtra,21.137428,79.076708,150,3 hour 10 min
Parijatak,park,Nagpur,154 Dagalayout  Nagpur 440034  Maharashtra,21.136208,79.081843,75,2 hour
Raman Science Center,museum,Nagpur,Beside Gandhi Sagar  Ganesh Peth  Nagpur 440018  Mahārāshtra,21.14457,79.096181,150,4 hour 20 min
Sachee Art Gallery,art gallery,Nagpur,Main Road (Residency Road)  440001  Mahārāshtra,21.160688,79.07959,250,2 hour 10 min
Sachee Art Gallery,art gallery,Nagpur,Nagpur 440001  Mahārāshtra,21.16156,79.07944,150,3 hour 30 min
SFS Church,church,Nagpur,Walker's Road (Seminary Hills)  Nagpur 440001  Mahārāshtra,21.158566,79.082898,0,1 hour
Shree Mohini Complex Chowk,monument,Nagpur,Nagpur 440012  Maharashtra,21.154319,79.084388,40,2 hour 30 min
shri SHANIJI mandir,temple,Nagpur,941735,21.144123,79.08806,50,2 hour 40 min
Sumtinath Jain Mandir,temple,Nagpur,Ramdaaspeth  Nagpur 941735  Mahārāshtra,21.135291,79.068986,50,3 hour 20 min
Tekdi Ganesh Mandir,temple,Nagpur,Near Railway Station  Nagpur 413109  Mahārāshtra,21.148177,79.08718,50,2 hour 20 min
Ambuja Neotia City Centre Mall,mall,Patna,Buddh Marg  Patna 800001  Bihār,25.618149,85.13491,0,2 hour 30 min
Baptist Church,church,Patna,Patna 800001  Bihar,25.61843,85.135107,0,1 hour
Bihar Museum,museum,Patna,Bailey Road  Patna 800001  Bihār,25.607999,85.120451,140,4 hour
Bjp Party Office,monument,Patna,Patna  Bihar,25.607455,85.129287,60,2 hour 30 min
Children park,park,Patna,,25.61279,85.114262,150,2 hour
Congress Maidan,park,Patna,Anugrah Narayan Road  Patna 800003  Bihār,25.609111,85.153161,100,2 hour
Eco Park,park,Patna,Patna  Bihār,25.610028,85.115254,100,2 hour
G.V Mall Patna,mall,Patna,Boring Road (Chauraha)  Patna 800001  Bihār,25.612779,85.137058,0,2 hour 30 min
Gandhi Maidan,park,Patna,Muradpur  Patna 800001  Bihār,25.617328,85.144943,100,2 hour
Gandhi Sangrahalaya,monument,Patna,Ashok Rajpath  Gandhi Maidan  Patna 800001  Bihār,25.616565,85.148628,60,5 hour 10 min
Gauria Math,temple,Patna,941735,25.597854,85.120265,50,2 hour 40 min
Hanuman Mandir,temple,Patna,patna station road  Patna 941735  Bihār,25.604002,85.137167,50,2 hour 20 min
Karpoori Thakur Museum,museum,Patna,Deshratna Marg  Patna 800001  Bihar,25.600811,85.106907,150,4 hour 20 min
Mahavir Mandir,temple,Patna,941735,25.606604,85.13696,50,2 hour 20 min
Mahavir Mandir,temple,Patna,Station Road  941735,25.604069,85.142025,50,2 hour 40 min
Martyr's Memorial,monument,Patna,Outside Secretariat Building  Patna 800015  Bihar,25.602829,85.137495,50,3 hour
Mythila,art gallery,Patna,Patna 800001  Bihar,25.623444,85.132414,180,2 hour 20 min
PandM Mall,mall,Patna,P.Andm Mall  Industrial Estate Campus  Patliputra Colony (Police Station- Fulwari)  Patna 800013  Bihār,25.634191,85.106332,0,2 hour 30 min
Patna Central,mall,Patna,941735  Bihār,25.611702,85.138621,0,2 hour 30 min
Patna Museum,museum,Patna,Bailey Road  Patna 800001  Bihār,25.612577,85.133438,180,3 hour 20 min
Patna Musuem,museum,Patna,605392,25.605485,85.112403,170,3 hour 10 min
Patna Planetarium,museum,Patna,Taramandal  Patna 800001  Bihār,25.610526,85.13207,140,4 hour
Patna Zoo,park,Patna,Bailey Road  Patna 800001  Bihār,25.600886,85.097313,50,2 hour
Sanjay Gandhi Biological Park,zoo,Patna,Bailey Road  Raj Bhavan  Rajbansi  Patna 800001  Bihār,25.59726,85.100179,100,3 hour 50 min
Shri PATNA KALIBARI,temple,Patna,Yarpur Road  Gardanibagh  Patna 941735  Bihār,25.597468,85.119399,50,2 hour 20 min
St Joseph Catholic Church,church,Patna,Ashok Raj Path  Patna 800004  Bihar,25.619642,85.154215,0,1 hour
St Marr Church,church,Patna,Patna 800001  Bihar,25.620013,85.12718,0,1 hour
Union Church,church,Patna,Patna 801105  Bihar,25.580374,85.047299,0,1 hour
Vishal Mega Mart,mall,Patna,Ground Floor And  Pandey Mall  Fraser Road  Old Jakkanpur (Indira Nagar)  Patna 941735  Bihār,25.612609,85.139664,0,2 hour 30 min
Water Fountain,monument,Patna,Fraser Road Area  Patna 800001  Bihar,25.604511,85.137683,80,2 hour 30 min
29028 Adventure World,zoo,Pune,D-10  Shivnagari  Behind Ekalavaya Polytech  Kothrud  Pune 411038  Mahārāshtra,18.516516,73.803682,200,4 hour 30 min
29028 Adventure World,zoo,Pune,D-10  Shivnagari  Behind Ekalavaya Polytech  Kothrud  Pune 411038  Mahārāshtra,18.516516,73.803682,250,3 hour 50 min
7 Wonders Park,park,Pune,N/A,18.492923,73.853731,100,2 hour
7 Wonders Park,park,Pune,N/A,18.492923,73.853731,50,2 hour
Amanora Town Centre In Gate,mall,Pune,Amanora Town Centre  Pune 411028  Mahārāshtra,18.518661,73.934997,0,2 hour 30 min
Amanora Town Centre In Gate,mall,Pune,Amanora Town Centre  Pune 411028  Mahārāshtra,18.518661,73.934997,0,2 hour 30 min
Balgandharva Kaladalan,art gallery,Pune,Balgandharva Rangamandir (JM Road)  Pune  Mahārāshtra,18.522275,73.848895,160,2 hour 50 min
Balgandharva Kaladalan,art gallery,Pune,Balgandharva Rangamandir (JM Road)  Pune  Mahārāshtra,18.522275,73.848895,130,2 hour 20 min
Chandni Chowk,monument,Pune,Pune 941735  Mahārāshtra,18.508099,73.78358,80,3 hour 30 min
Chandni Chowk,monument,Pune,Pune 941735  Mahārāshtra,18.508099,73.78358,100,4 hour 20 min
Chhatrapati Sambhaji Garden,amusement park,Pune,411004  Mahārāshtra,18.520435,73.847215,250,2 hour 25 min
Chhatrapati Sambhaji Garden,amusement park,Pune,411004  Mahārāshtra,18.520435,73.847215,300,3 hour 30 min
Chhatrapati Shivaji Maharaj Udyan,amusement park,Pune,Opposite To Sanas Sports Club (Sadashiv Peth)  Pune  Mahārāshtra,18.504444,73.853245,250,2 hour 25 min
Chhatrapati Shivaji Maharaj Udyan,amusement park,Pune,Opposite To Sanas Sports Club (Sadashiv Peth)  Pune  Mahārāshtra,18.504444,73.853245,350,3 hour 35 min
Chittaranjan Vatika,amusement park,Pune,Model Colony  Ashok Nagar  Model Colony  Pune 411005  Mahārāshtra,18.532174,73.837716,290,2 hour 29 min
Chittaranjan Vatika,amusement park,Pune,Model Colony  Ashok Nagar  Model Colony  Pune 411005  Mahārāshtra,18.532174,73.837716,280,2 hour 28 min
Christ Church,church,Pune,Quarter Gate  Pune 411002  Mahārāshtra,18.516545,73.871593,0,1 hour
Christ Church,church,Pune,Quarter Gate  Pune 411002  Mahārāshtra,18.516545,73.871593,0,1 hour
Dorabjee's Royal Heritage Mall,mall,Pune,941735,18.467228,73.906113,0,2 hour 30 min
Dorabjee's Royal Heritage Mall,mall,Pune,941735,18.467228,73.906113,0,2 hour 30 min
Electrical Inspector office,monument,Pune,Swargate  Pune 941735  Mahārāshtra,18.501177,73.867857,110,4 hour 20 min
Electrical Inspector office,monument,Pune,Swargate  Pune 941735  Mahārāshtra,18.501177,73.867857,50,5 hour 10 min
Joggers park,park,Pune,Lokmanya Nagar  Sadashiv Peth  Pune 839728  Mahārāshtra,18.504833,73.846418,125,2 hour
Joggers park,park,Pune,Lokmanya Nagar  Sadashiv Peth  Pune 839728  Mahārāshtra,18.504833,73.846418,130,2 hour
Karve Statue,monument,Pune,Karve Road  Pune 411038  Mahārāshtra,18.502228,73.815445,100,2 hour 30 min
Karve Statue,monument,Pune,Karve Road  Pune 411038  Mahārāshtra,18.502228,73.815445,120,3 hour
Latent Ani Ink Labs,art gallery,Pune,Uma Shankar Bldg  Supreme Color Lab (Narayan Peth)  Pune  Mahārāshtra,18.516258,73.851877,150,2 hour 50 min
Latent Ani Ink Labs,art gallery,Pune,Uma Shankar Bldg  Supreme Color Lab (Narayan Peth)  Pune  Mahārāshtra,18.516258,73.851877,200,2 hour 10 min
Lekha Farm Cultural Garden,amusement park,Pune,Sr No 10 And 4  Pune 412101  Mahārāshtra,18.520381,73.856647,300,3 hour 30 min
Lekha Farm Cultural Garden,amusement park,Pune,Sr No 10 And 4  Pune 412101  Mahārāshtra,18.520381,73.856647,290,2 hour 29 min
Lokmannya Tilak Museum,museum,Pune,Pune  Mahārāshtra,18.516075,73.848915,180,3 hour 20 min
Lokmannya Tilak Museum,museum,Pune,Pune  Mahārāshtra,18.516075,73.848915,170,3 hour 10 min
Maharashtra Sahakari Mudranalay(Printers),monument,Pune,Fc Road (Opp Wadeshwar Hotel)  Pune 411001  Mahārāshtra,18.518548,73.840999,100,3 hour 20 min
Maharashtra Sahakari Mudranalay(Printers),monument,Pune,Fc Road (Opp Wadeshwar Hotel)  Pune 411001  Mahārāshtra,18.518548,73.840999,120,2 hour 30 min
Manoranjan Nagri,amusement park,Pune,Circus/Amusement Park Ground (Below Z Bridge  Off Bhide Bridge)  Pune 411030  Mahārāshtra,18.515956,73.843757,280,2 hour 28 min
Manoranjan Nagri,amusement park,Pune,Circus/Amusement Park Ground (Below Z Bridge  Off Bhide Bridge)  Pune 411030  Mahārāshtra,18.515956,73.843757,320,3 hour 32 min
Museums,museum,Pune,Raja Kelkar Sangrahalay Road  Pune 411002  Mahārāshtra,18.51074,73.854347,180,3 hour 20 min
Museums,museum,Pune,Raja Kelkar Sangrahalay Road  Pune 411002  Mahārāshtra,18.51074,73.854347,170,3 hour 10 min
National Film Archive of India,art gallery,Pune,Law College Road (Opposite ILS Law College )  Pune 411004  Mahārāshtra,18.515905,73.829504,170,2 hour 10 min
National Film Archive of India,art gallery,Pune,Law College Road (Opposite ILS Law College )  Pune 411004  Mahārāshtra,18.515905,73.829504,190,3 hour 30 min
Osho Teerth Park,park,Pune,Pune 941735 ,18.536044,73.890876,125,2 hour
Osho Teerth Park,park,Pune,Pune 941735 ,18.536044,73.890876,130,2 hour
Pantaloons Phoenix Market City Mall,mall,Pune,Ground Floor  Phoenix Marketcity Pune  S No 207  Viman Nagar Road (Nagar Road)  Pune 411014  Mahārāshtra,18.561881,73.916974,0,2 hour 30 min
Pantaloons Phoenix Market City Mall,mall,Pune,Ground Floor  Phoenix Marketcity Pune  S No 207  Viman Nagar Road (Nagar Road)  Pune 411014  Mahārāshtra,18.561881,73.916974,0,2 hour 30 min
Paras Enterprise,museum,Pune,Plot No 22  Weikfield Industrial Park  Tal Shirur  Sr No 1251-1252  Sr No 1251-1252  Pune 412208  Mahārāshtra,18.526614,73.861714,220,4 hour 20 min
Paras Enterprise,museum,Pune,Plot No 22  Weikfield Industrial Park  Tal Shirur  Sr No 1251-1252  Sr No 1251-1252  Pune 412208  Mahārāshtra,18.526614,73.861714,210,5 hour 10 min
Park,park,Pune,,18.531442,73.829846,90,2 hour
Park,park,Pune,,18.531442,73.829846,100,2 hour
Paryavaran Mitra Park,park,Pune,380059  Gujarat,18.503588,73.87274,50,2 hour
Paryavaran Mitra Park,park,Pune,380059  Gujarat,18.503588,73.87274,100,2 hour
Pataleshwar Cave Temple,temple,Pune,Jungli Maharaj Road  Pune 411005  Mahārāshtra,18.526897,73.850061,50,2 hour 20 min
Pataleshwar Cave Temple,temple,Pune,Jungli Maharaj Road  Pune 411005  Mahārāshtra,18.526897,73.850061,50,2 hour 40 min
Peshwe Park,zoo,Pune,9 Sane Guruji Road  Municipal Colony  Pune 411009  Mahārāshtra,18.503073,73.851269,200,3 hour 20 min
Peshwe Park,zoo,Pune,9 Sane Guruji Road  Municipal Colony  Pune 411009  Mahārāshtra,18.503073,73.851269,150,4 hour 20 min
Raja Dinkar Kelkar Museum,museum,Pune,1377- 78  Shukrawar Peth (off Bajirao road)  Pune 411002  Mahārāshtra,18.510708,73.854562,200,4 hour 10 min
Raja Dinkar Kelkar Museum,museum,Pune,1377- 78  Shukrawar Peth (off Bajirao road)  Pune 411002  Mahārāshtra,18.510708,73.854562,100,3 hour 30 min
Rajiv Gandhi Zoological Park,zoo,Pune,Nh 4  Katraj (Satara Road)  Pune 411046  Mahārāshtra,18.452977,73.861109,270,5 hour 10 min
Rajiv Gandhi Zoological Park,zoo,Pune,Nh 4  Katraj (Satara Road)  Pune 411046  Mahārāshtra,18.452977,73.861109,90,4 hour 30 min
Shaniwar Wada,museum,Pune,Shivaji Road  411030  Mahārāshtra,18.518677,73.856042,180,3 hour 20 min
Shaniwar Wada,museum,Pune,Shivaji Road  411030  Mahārāshtra,18.518677,73.856042,200,4 hour 10 min
Shop Act Office,monument,Pune,Wakdewadi (Pune-Mumbai Highway)  Pune 941735  Mahārāshtra,18.534603,73.851325,50,5 hour 10 min
Shop Act Office,monument,Pune,Wakdewadi (Pune-Mumbai Highway)  Pune 941735  Mahārāshtra,18.534603,73.851325,60,3 hour 20 min
Shree Parmeshwar,art gallery,Pune,No 576  Ramanbag Chowk  Narayan Peth  Pune 411030  Mahārāshtra,18.516242,73.850217,200,2 hour 10 min
Shree Parmeshwar,art gallery,Pune,No 576  Ramanbag Chowk  Narayan Peth  Pune 411030  Mahārāshtra,18.516242,73.850217,230,3 hour 30 min
SnoopPad,zoo,Pune,Ganga Hamlet (Viman Nagar  Near Symbiosis and Cafe coffee day)  Pune 411014  Mahārāshtra,18.564276,73.911356,250,4 hour 10 min
SnoopPad,zoo,Pune,Ganga Hamlet (Viman Nagar  Near Symbiosis and Cafe coffee day)  Pune 411014  Mahārāshtra,18.564276,73.911356,400,3 hour 20 min
Speed Den,zoo,Pune,Kothrud,18.503156,73.819984,150,4 hour 30 min
Speed Den,zoo,Pune,Kothrud,18.503156,73.819984,200,3 hour 50 min
St Paul Church,church,Pune,Pune  Mh  Pune 411014  Mahārāshtra,18.52219,73.874891,0,1 hour
St Paul Church,church,Pune,Pune  Mh  Pune 411014  Mahārāshtra,18.52219,73.874891,0,1 hour
St. Anthony's Shrine,church,Pune,St. Vincent's Street  Pune 411001  Mahārāshtra,18.513714,73.874195,0,1 hour
St. Anthony's Shrine,church,Pune,St. Vincent's Street  Pune 411001  Mahārāshtra,18.513714,73.874195,0,1 hour
St. Teresa's Church,church,Pune,Swargate,18.503596,73.860978,0,1 hour
St. Teresa's Church,church,Pune,Swargate,18.503596,73.860978,0,1 hour
Sunny,church,Pune,,18.515434,73.85967,0,1 hour
Sunny,church,Pune,,18.515434,73.85967,0,1 hour
Temple,temple,Pune,Babu Rangari Marg  Pune 411002  Maharashtra,18.517297,73.856108,0,2 hour 20 min
Temple,temple,Pune,Ganesh Road  Pune 411011  Maharashtra,18.518915,73.858408,0,2 hour 40 min
Temple,temple,Pune,Rangoba Ladka Marg  Pune 411011  Maharashtra,18.521048,73.860089,0,3 hour 20 min
Temple,temple,Pune,Bhoot Kh Marg  Pune 411002  Maharashtra,18.514506,73.858221,0,2 hour 30 min
Temple,temple,Pune,Babu Rangari Marg  Pune 411002  Maharashtra,18.517297,73.856108,0,2 hour 30 min
Temple,temple,Pune,Ganesh Road  Pune 411011  Maharashtra,18.518915,73.858408,0,2 hour
Temple,temple,Pune,Rangoba Ladka Marg  Pune 411011  Maharashtra,18.521048,73.860089,0,3 hour
Temple,temple,Pune,Bhoot Kh Marg  Pune 411002  Maharashtra,18.514506,73.858221,0,2 hour 20 min
The Pavillion,mall,Pune,5 Next To Jw Marriott  Senapati Bapat Road  Shivaji Co Operative Housing Society  Bhageerath  Gokhalenagar  Pune 411016  Mahārāshtra,18.533725,73.829844,0,2 hour 30 min
The Pavillion,mall,Pune,5 Next To Jw Marriott  Senapati Bapat Road  Shivaji Co Operative Housing Society  Bhageerath  Gokhalenagar  Pune 411016  Mahārāshtra,18.533725,73.829844,0,2 hour 30 min
Westend mall,mall,Pune,Aundh  Pune 941735  Mahārāshtra,18.561785,73.807098,0,2 hour 30 min
Westend mall,mall,Pune,Aundh  Pune 941735  Mahārāshtra,18.561785,73.807098,0,2 hour 30 min
Adventura @ City Centre,amusement park,Raipur,,21.250356,81.656242,290,2 hour 29 min
Adventura @ City Centre,park,Raipur,N/A,21.250356,81.656242,75,2 hour
Allahabad Bank-Lakhe Nagar,monument,Raipur,Lakhe  Raipur 492013  Chhattīsgarh,21.236092,81.611744,40,4 hour 10 min
Angel Matthews,church,Raipur,,21.236047,81.606546,0,1 hour
Bastar Art,art gallery,Raipur,Shop No.7  A.T.Plaza  Shankar (Sector-1  Near : Emperiel Fruits)  Raipur 492007  Chhattīsgarh,21.251407,81.663878,200,3 hour 10 min
Church of God,church,Raipur,Raja Talab  Raipur 492001  Chhattīsgarh,21.24591,81.647381,0,1 hour
City Center Mall,mall,Raipur,Pandri  Raipur 492001  Chhattīsgarh,21.254902,81.646502,0,2 hour 30 min
Colors Mall,mall,Raipur,Raipur Dhamtari Road  Raipur 941735  Chhattīsgarh,21.216756,81.656405,0,2 hour 30 min
Gandhi park,park,Raipur,,21.250207,81.656329,150,2 hour
Gayatri Mandir,temple,Raipur,,21.247368,81.620191,50,3 hour 20 min
Grace Church C.N.I,church,Raipur,St. Paul's School Campus (Bayron Bazaar)  Raipur 492001  Chhattīsgarh,21.231458,81.641848,0,1 hour
Guru Ghasidas Plaza,mall,Raipur,G.E (Road)  Raipur 492009  Chhattīsgarh,21.239614,81.624351,0,2 hour 30 min
Gurudwara Baba Budda Saheb Ji,temple,Raipur,240814,21.240786,81.661198,50,2 hour 40 min
Jain dadawadi,temple,Raipur,941735,21.245368,81.63425,50,2 hour 30 min
Jaistambh chowk Raipur,monument,Raipur,,21.243828,81.637245,100,3 hour
Lal Ganga Shopping Mall,mall,Raipur,941735,21.243849,81.638532,0,2 hour 30 min
M.M Funcity,park,Raipur,492001,21.261054,81.662298,75,2 hour
Ma Mahakali Mandir,monument,Raipur,Gass Memorial Ground (Near Akashwani)  Raipur  Chhattīsgarh,21.238205,81.645571,60,3 hour 30 min
Magneto Mall,mall,Raipur,Nh - 6  Raipur 492001  Chhattīsgarh,21.240517,81.684036,0,2 hour 30 min
Mahant Ghasi Das Memorial Museum,museum,Raipur,Raipur 492001  Chhattisgarh,21.243739,81.644856,100,3 hour 30 min
Raipur Christian Church,church,Raipur,Mahaveer Nagar  New Purena  Canal Linking  Raipur 492001  Chhattīsgarh,21.226849,81.663479,0,1 hour
Shahid Smarak,monument,Raipur,Janoothar  321206  Rajasthan,21.245129,81.637917,80,4 hour 10 min
Shani Temple,temple,Raipur,941735,21.244896,81.613811,50,2 hour 20 min
Shyam Mandir,temple,Raipur,941735,21.246079,81.6241,50,3 hour 20 min
St. Paul's Cathedral,church,Raipur,Near Moti Bagh  Raipur 492001  Chhattīsgarh,21.232918,81.654708,0,1 hour
Talwarkars GYM,monument,Raipur,,21.224028,81.657992,70,2 hour 30 min
Wonderland Theme Park,amusement park,Raipur,Near Shubh Honda (Ring Road)  Raipur  Chhattīsgarh,21.258194,81.614737,360,3 hour 36 min
Wonderland Theme Park,amusement park,Raipur,Near Shubh Honda (Ring Road)  Raipur  Chhattīsgarh,21.260673,81.674301,280,2 hour 28 min
Wonderland Theme Park,park,Raipur,Near Shubh Honda (Ring Road)  Raipur  Chhattīsgarh,21.258194,81.614737,50,2 hour
Wonderland Theme Park,park,Raipur,Near Shubh Honda (Ring Road)  Raipur  Chhattīsgarh,21.260673,81.674301,100,2 hour
Bhavna Industries,amusement park,Rajkot,Opposite S.T. Workshop  Gondal Road  Rājkot 360004  Gujarāt,22.305506,70.79258,400,4 hour
Bhavna Industries,park,Rajkot,Opposite S.T. Workshop  Gondal Road  Rājkot 360004  Gujarāt,22.305506,70.79258,150,2 hour
Catholic Church,church,Rajkot,Mochi Bazar  Rajkot 360001  Gujarat,22.302897,70.80602,0,1 hour
Christ Church,church,Rajkot,Shroff Road  Rajkot 360001  Gujarat,22.305291,70.795102,0,1 hour
Church Of North India,church,Rajkot,Near I P Mission Girls School  Mochibazar  Mochi Bazar Main Road  Rājkot 360001  Gujarāt,22.302983,70.806085,0,1 hour
Crystal Mall,mall,Rajkot,Kalawad Road  Rājkot 360005  Gujarāt,22.279808,70.763117,0,2 hour 30 min
DeoDap,mall,Rajkot,Patanjali Saurastra Depot  Ruda Transport Nagar  Anandpar  Rājkot 360003  Gujarāt,22.303927,70.802995,0,2 hour 30 min
Disneyland Rajkot,amusement park,Rajkot,Rajkot,22.270407,70.748439,280,2 hour 28 min
Doll Museum,museum,Rajkot,941735,22.293583,70.791396,150,4 hour 20 min
Forum Fiza Mall Mangalore,mall,Rajkot,941735,22.279822,70.800551,0,2 hour 30 min
Greenland Chowk,monument,Rajkot,Rājkot 941735  Gujarāt,22.311426,70.829596,110,3 hour 30 min
Iscon Mall,mall,Rajkot,Rājkot 941735  Gujarāt,22.279942,70.775842,0,2 hour 30 min
Jalaram Mandir,temple,Rajkot,941735,22.29636,70.794304,50,2 hour 40 min
Jiya Creation,art gallery,Rajkot,25 Golden Plaza Tagore Road  Rajkot 360002  Gujarat,22.287237,70.791629,170,3 hour 30 min
Jyubeli chowk,park,Rajkot,Mahatma Gandhi (Civil Chowk Main Road)  Rājkot  Gujarāt,22.299306,70.801262,100,2 hour
K.K.V. Hall Circle,monument,Rajkot,Kalawad Road (Near150 Feet Ring Road)  Rājkot 360001  Gujarāt,22.284252,70.772555,110,4 hour 10 min
Karanpara Chowk,monument,Rajkot,Prahlad Plot  Rajkot 360001  Gujarat,22.290667,70.80518,90,3 hour 20 min
Mahatma Gandhi High School,monument,Rajkot,Jubilee  Rajkot 360001  Gujarat,22.298818,70.800153,70,3 hour
Metro Footwear,mall,Rajkot,Rājkot 941735  Gujarāt,22.292685,70.799431,0,2 hour 30 min
Out Of The Box Amazement Park,amusement park,Rajkot,Nyari Dam 1 Road (Kalavad Road )  Rājkot 360005  Gujarāt,22.254975,70.720342,360,3 hour 36 min
Panchnath Mahadev Mandir,temple,Rajkot,941735,22.298823,70.799248,50,2 hour
Prem Mandir / Bishops House,church,Rajkot,,22.275815,70.758102,0,1 hour
Race Course,park,Rajkot,Race Course  Rājkot  Gujarāt,22.30673,70.789082,125,2 hour
Ramkrishna Ashram,temple,Rajkot,Ramkrishna Complex (Dr. Yagnik Road)  Rājkot 360007  Gujarāt,22.290212,70.802445,50,3 hour 20 min
Ravi Ratna Park,park,Rajkot,University Road (Near Indira Circle)  Rājkot 360001  Gujarāt,22.290414,70.768633,100,2 hour
RDS Tattoo Studio,art gallery,Rajkot,Shop No. 5  Trisha Commercial Complex  Amin Marg  Rajkot 360001  Gujarat,22.285457,70.778039,160,2 hour 20 min
Rotary Dolls Museum,museum,Rajkot,Rajkot Nagrik Sahakari Bank Building  Rājkot 360001  Gujarāt,22.293737,70.791222,180,3 hour 20 min
Shree Sankalp Siddh Hanumanji,temple,Rajkot,Near Under Bridge (Kalawad Road  Rajkot)  Rājkot 941735  Gujarāt,22.294285,70.783049,50,2 hour 30 min
Shri OV Sheth Regional Community Science Centre,museum,Rajkot,Nehru Udhyan  Race Course Ring Road  Rajkot 360001  Gujarat,22.299527,70.790118,250,3 hour 30 min
SK Chowk,monument,Rajkot,Gandhigram  Rajkot 360007  Gujarat,22.306972,70.7704,90,3 hour
St Peters JSO church,church,Rajkot,Ashapura Arcade (P&T Colony),22.293342,70.805371,0,1 hour
Top Art Gallery,art gallery,Rajkot,360005  Gujarat,22.285322,70.777731,180,3 hour 30 min
Trikumbrai Haveli,temple,Rajkot,941735,22.294633,70.790904,50,3 hour 20 min
Watson Museum,museum,Rajkot,Jawahar Road  Ahmedabad 300732  Gujarāt,22.300673,70.801751,140,4 hour
Watson Museum,museum,Rajkot,Dhebar Road  Lohana  Rajkot 300517  Gujarat,22.300523,70.801761,270,3 hour 50 min
Wild destinations,zoo,Rajkot,Ashish Commerical Complex  Sardar Nagar Main Road  Rajkot 360001  Gujarat,22.291638,70.788286,250,4 hour 30 min
Wild Flower Park,amusement park,Rajkot,Ishwariya (Jamnagar rajkot highway)  Rājkot  Gujarāt,22.354406,70.767025,280,2 hour 28 min
Yogidarshan Society,park,Rajkot,B/H Swaminarayan Temple (Kalavad Road)  Rājkot 293774  Gujarāt,22.293698,70.780669,50,2 hour
Ashok Nagar Park,park,Ranchi,Ashok Nagar Gate No.2  Ranchi 834002  Jharkhand,23.348799,85.305317,150,2 hour
Assembly Church of God,church,Ranchi,Purulia Road  Ranchi 834001  Jharkhand,23.364916,85.34402,0,1 hour
Audrey House,museum,Ranchi,Kanke Rd  Ranchi 834001  Jharkhand,23.383013,85.317482,250,3 hour 30 min
Devi Mandir Hinoo,temple,Ranchi,Ranchi 941735  Jharkhand,23.325932,85.314713,50,2 hour 40 min
Dewri Mandir Ranchi,monument,Ranchi,Tata-Ranchi Highway  Jharkhand,23.350047,85.370886,80,4 hour 10 min
Durga Bari,temple,Ranchi,Albert Ekka Chouk  Ranchi 834001  Jharkhand,23.37045547,85.32466292,50,3 hour 20 min
Durga Mandir,temple,Ranchi,Near Air (Ratu Road)  Ranchi 941735  Jharkhand,23.379704,85.312382,50,2 hour 30 min
GEL Church,church,Ranchi,Gel Church Complex  Main Road Dist  Ranchi 834001  Jharkhand,23.35606,85.328361,0,1 hour
GEL Church Complex,mall,Ranchi,Gel Church Complex (Main Road)  Ranchi 834001  Jharkhand,23.35793727,85.32542467,0,2 hour 30 min
Hotel Krishna Inn,park,Ranchi,Katchury Road  Ranchi 834001  Jharkhand,23.36191,85.326062,100,2 hour
Jagannath Temple,temple,Ranchi,Ranchi  Jharkhand,23.340476,85.303493,50,2 hour 40 min
Jain Mandir,temple,Ranchi,941735,23.370414,85.321467,50,2 hour
JAIN Mehndi Center,art gallery,Ranchi,Durga Mandir  Ratu Road  Ranchi 834001  Jharkhand,23.349994,85.32997,200,2 hour 20 min
JD Hi Street,mall,Ranchi,Mahatma Gandhi Rd  Ranchi 834001  Jharkhand,23.35799144,85.32469511,0,2 hour 30 min
Kanke Dam Park,park,Ranchi,Ranchi 834008  Jharkhand,23.401868,85.313079,90,2 hour
Mani Girls Hostel,monument,Ranchi,Ranchi 834001  Jharkhand,23.370352,85.337366,110,2 hour 30 min
Patel Bhawan,monument,Ranchi,Patel Park (Harmu Housing Colony)  Ranchi 357772  Jharkhand,23.357787,85.307947,100,4 hour 20 min
Ranchi,church,Ranchi,Indian Spun Pipe Compound  Ranchi 834001  Jharkhand,23.352753,85.324974,0,1 hour
Ranchi Cathedral,church,Ranchi,,23.362788,85.340619,0,1 hour
Ranchi City Centre,mall,Ranchi,941735,23.353979,85.327762,0,2 hour 30 min
Sakshi Upvan,park,Ranchi,Ranchi 834001  Jharkhand,23.379923,85.302104,150,2 hour
Sangam Garden,park,Ranchi,Ranchi 834008  Jharkhand,23.394048,85.327805,50,2 hour
Shaheed Albert Ekka Chowk,monument,Ranchi,Mahatma Gandhi Rd  Ranchi 834001  Jharkhand,23.37000736,85.32505989,50,2 hour 30 min
Shahid Sthal Saha Smarak,monument,Ranchi,Near Shahid Chowk  Jj Road  Ranchi 834001  Jharkhand,23.370503,85.323075,100,3 hour 30 min
Spring City Mall,mall,Ranchi,103 & 104  Airport Rd  Ranchi 834002  Jharkhand,23.33313375,85.31708837,0,2 hour 30 min
St Pauls Cathedral,church,Ranchi,Bahubazar  Ranchi 834001  Jharkhand,23.358322,85.335791,0,1 hour
State Museum,museum,Ranchi,Hotwar  Ranchi 834009  Jharkhand,23.38343,85.385894,150,4 hour 20 min
V Mart,mall,Ranchi,Siram Village  Indira Chowk  Station Road (Kathartoli)  Ranchi 834001  Jharkhand,23.354817,85.338477,0,2 hour 30 min
Art Of Bengal,art gallery,Siliguri,712467,26.712467,88.424089,230,3 hour 30 min
Ava Art Gallery,art gallery,Siliguri,,26.712995,88.423715,170,3 hour 10 min
Baghajatin Park,monument,Siliguri,Netaji Pally Road  Siliguri 734001  West Bengal,26.708407,88.431902,120,5 hour 10 min
Baghajatin Park,park,Siliguri,Netaji Pally Road  Siliguri 734001  West Bengal,26.708407,88.431902,100,2 hour
Bengal Handloom Fair,park,Siliguri,,26.713312,88.423412,100,2 hour
Children's Park,park,Siliguri,,26.710334,88.423682,130,2 hour
Church of God Ministries,church,Siliguri,9 Agrasen Road  Khalpara  Siliguri 734001  West Bengal,26.705668,88.416999,0,1 hour
City Center,mall,Siliguri,Siliguri 941735  West Bengal,26.724511,88.395118,0,2 hour 30 min
Cosmos Mall,mall,Siliguri,Opposite Power House  Ward 43  2nd Mile  Sevoke Road  Dasrath Pally  Bhanu (Sevoke Road)  Siliguri 734001  West Bengal,26.738696,88.434061,0,2 hour 30 min
Cosmos Mall,mall,Siliguri,941735,26.717086,88.425134,0,2 hour 30 min
Doors India,art gallery,Siliguri,2nd Mile  Iti Road  Siliguri 734001  West Bengal,26.73642,88.43538,150,2 hour 50 min
Himalaya,zoo,Siliguri,941735,26.713312,88.423412,250,4 hour 10 min
Holy Christ Church,church,Siliguri,Shakti Gargh Road  Siliguri 734004  West Bengal,26.698108,88.412506,0,1 hour
ISKCON Temple,temple,Siliguri,941735,26.71329,88.423537,50,2 hour 20 min
Kali Mandir,temple,Siliguri,Burdwan Road  Siliguri 734001  West Bengal,26.710811,88.418061,50,3 hour 20 min
Kali Mata Temple,temple,Siliguri,Hospital Road  Siliguri 734001  West Bengal,26.710248,88.428041,50,2 hour 30 min
Khudiram Pally Market,park,Siliguri,,26.711582,88.424624,125,2 hour
Netaji Statue,monument,Siliguri,941735,26.711412,88.42281,50,2 hour 30 min
Orbit Mall,mall,Siliguri,941735,26.712146,88.424783,0,2 hour 30 min
Savin Kingdom,park,Siliguri,,26.707276,88.425695,50,2 hour
Savin Kingdom Amusement Park,amusement park,Siliguri,Tenzing Norgay Road  Dagapur  Siliguri 734010  West Bengal,26.739554,88.403035,280,2 hour 28 min
Sed-Gyued Monastery,monument,Siliguri,Bsf Road  Po Salugara  707416  West Bengal,26.768699,88.453089,70,5 hour 10 min
Sevoke More,monument,Siliguri,Sevoke Road  Siliguri 734001  West Bengal,26.715683,88.423036,60,3 hour 20 min
Shri Mahabir Mandir,temple,Siliguri,Siliguri 734001  West Bengal,26.706963,88.427635,50,3 hour
Siliguri Gurudwara,temple,Siliguri,Siliguri  West Bengal,26.712803,88.424053,50,2 hour 30 min
St Josephs Church,church,Siliguri,Siliguri 734004  West Bengal,26.692477,88.426351,0,1 hour
St. Mary's Church,church,Siliguri,680517,26.712995,88.423715,0,1 hour
Tenzing Norgay Crossing,monument,Siliguri,941735,26.712119,88.423271,100,4 hour 10 min
The Assembly of God Church,church,Siliguri,Siliguri 734001  West Bengal,26.722045,88.417444,0,1 hour
Vivekananda Super Market,mall,Siliguri,941735,26.713011,88.424178,0,2 hour 30 min
Almond Alcove (Badamvaer),park,Srinagar,Badamvaer (hawal)  Srinagar 190011  Jammu and Kashmīr,34.109007,74.821145,100,2 hour
Bait-ul-Maseeh  Magarmal Bagh,church,Srinagar,,34.067152,74.803788,0,1 hour
City Walk Mall,mall,Srinagar,M A Road  Srinagar 190001  Jammu and Kashmīr,34.073723,74.818867,0,2 hour 30 min
Craft Bazaar,art gallery,Srinagar,Aquilmir Khanyar  190003,34.089718,74.789989,230,2 hour 20 min
Dal Lake | डल झील | دل ليك,monument,Srinagar,Boulevard Road  Srinagar 190001  Jammu and Kashmīr,34.087617,74.856756,60,3 hour 20 min
Duzbin,park,Srinagar,Jawahar  Srinagar,34.061708,74.815414,50,2 hour
Gulam Mohiuddin Wani and Sons,art gallery,Srinagar,,34.082951,74.82611,250,2 hour 20 min
Hari Parbat Hill,museum,Srinagar,Srinagar 105977,34.105987,74.816405,130,5 hour 10 min
Hari Parbat Srinagar,monument,Srinagar,,34.092245,74.80202,120,4 hour 10 min
Holy Family Catholic Church,church,Srinagar,Ma Road  Srinagar 190001,34.074383,74.819086,0,1 hour
Holy Family Church,church,Srinagar,Srinagar  Jammu and Kashmir,34.074498,74.818883,0,1 hour
Jehlum View Park,park,Srinagar,The Bund  Srinagar 190001  Jammu and Kashmīr,34.071981,74.820181,100,2 hour
Kashmir Government Arts Emporium,art gallery,Srinagar,,34.080967,74.828982,150,2 hour 20 min
Kashmir Govt Silk Factory,art gallery,Srinagar,Srinagar 069615  Jammu and Kashmīr,34.069715,74.817259,180,2 hour 10 min
Kathi Darwaza,monument,Srinagar,Hazratbal Road  Rainawari  Botaraj Colony  Srinagar 190003  Jammu and Kashmir,34.103791,74.821417,70,4 hour 10 min
Land Mark Karan Nagar,mall,Srinagar,Srinagar 941735  Jammu and Kashmīr,34.082478,74.797239,0,2 hour 30 min
Medina Complex,mall,Srinagar,Karan Nagr  Srinagar 190010,34.089494,74.807256,0,2 hour 30 min
Protestant Church,church,Srinagar,Srinagar 190001,34.072216,74.834614,0,1 hour
